OBJECTID,NUMBER0,SYSTEM_NAM,TINWSYS_LO,OWNER_TYPE,D_PRIN_CIT,D_PRIN_CNT,D_FED_PRIM,D_POPULATI,D_TTL_STOR,ST_ASGN_ID,D_PWS_FED_,TINWSF_IS_,FACILITY_N,TINWSF_LOC,FACILITY_T,WATER_TYPE,AVAILABILI,LAT,LON,HORIZ_REF_,DATA_COLLE,DEPTH_OF_W,DEPTH_OF_1,WELL_DIAME,WELL_DIA_1,STATIC_WAT,STATIC_W_1,OFFICE,OVERSIGHT,ACTIVE
"11",NM3526504,MIAMI WATER USERS ASSOCIATION,,L,MIAMI,COLFAX,SW,135.00000000,195000.00000000,"26504001",C,7016.00000000,INTAKE #1,MIAMI LAKE,IN,SW,P,36.34702700,-104.89230500,"003",2012/08/27,0.00000000,,0.00000000,,0.00000000,,SANTA FE AREA OFFICE,GREG QUARTIERI,"-1"
"136",NM3592729,SIPAPU LODGE AND CAFE,,P,VADITO,TAOS,GU,250.00000000,0.00000000,"92729001",NC,7201.00000000,SPRING #1,OLD NAME WELL #1 (SPRING #1),SP,GU,P,36.15502800,-105.55090200,"003",2006/10/26,0.00000000,,0.00000000,,0.00000000,,SANTA FE AREA OFFICE,SF FRANK BACA,"-1"
"137",NM3592729,SIPAPU LODGE AND CAFE,,P,VADITO,TAOS,GU,250.00000000,0.00000000,"92729003",NC,11399.00000000,WELL #2,SPRING #2 (OLD),WL,GW,E,36.15527800,-105.55076300,"003",2006/10/26,20.00000000,FT,0.00000000,,10.00000000,FT,SANTA FE AREA OFFICE,SF FRANK BACA,"0"
"165",NM3513319,ALAMOGORDO DOMESTIC WATER SYSTEM,,L,ALAMOGORDO,OTERO,SW,35629.00000000,25011000.00000000,"13319063",C,2478.00000000,WELL # 2,,WL,GW,P,32.96797900,-105.93677800,"003",2004/09/22,990.00000000,FT,10.00000000,IN,418.00000000,FT,LAS CRUCES AREA OFFICE,JOHN PIJAWKA,"-1"
"166",NM3513319,ALAMOGORDO DOMESTIC WATER SYSTEM,,L,ALAMOGORDO,OTERO,SW,35629.00000000,25011000.00000000,"13319064",C,2479.00000000,WELL # 3,,WL,GW,P,32.95168000,-105.93955600,"003",2004/09/22,880.00000000,FT,13.00000000,IN,400.00000000,FT,LAS CRUCES AREA OFFICE,JOHN PIJAWKA,"-1"
"167",NM3513319,ALAMOGORDO DOMESTIC WATER SYSTEM,,L,ALAMOGORDO,OTERO,SW,35629.00000000,25011000.00000000,"13319065",C,2480.00000000,WELL # 4,,WL,GW,P,32.95507200,-105.93656600,"003",2004/09/22,780.00000000,FT,10.00000000,IN,382.00000000,FT,LAS CRUCES AREA OFFICE,JOHN PIJAWKA,"-1"
"168",NM3513319,ALAMOGORDO DOMESTIC WATER SYSTEM,,L,ALAMOGORDO,OTERO,SW,35629.00000000,25011000.00000000,"13319066",C,2481.00000000,WELL # 5,,WL,GW,P,32.97425500,-105.93967400,"003",2004/09/22,936.00000000,FT,13.00000000,IN,438.00000000,FT,LAS CRUCES AREA OFFICE,JOHN PIJAWKA,"-1"
"169",NM3513319,ALAMOGORDO DOMESTIC WATER SYSTEM,,L,ALAMOGORDO,OTERO,SW,35629.00000000,25011000.00000000,"13319067",C,2482.00000000,WELL # 6,,WL,GW,P,32.94693500,-105.93740200,"003",2004/09/22,844.00000000,FT,14.00000000,IN,393.00000000,FT,LAS CRUCES AREA OFFICE,JOHN PIJAWKA,"-1"
"170",NM3513319,ALAMOGORDO DOMESTIC WATER SYSTEM,,L,ALAMOGORDO,OTERO,SW,35629.00000000,25011000.00000000,"13319068",C,2483.00000000,WELL # 7,,WL,GW,P,32.94726200,-105.93982400,"003",2004/09/22,750.00000000,FT,14.00000000,IN,395.00000000,FT,LAS CRUCES AREA OFFICE,JOHN PIJAWKA,"-1"
"171",NM3513319,ALAMOGORDO DOMESTIC WATER SYSTEM,,L,ALAMOGORDO,OTERO,SW,35629.00000000,25011000.00000000,"13319077",C,12109.00000000,GOLF COURSE WELL,,WL,GW,P,32.85886100,-105.95883300,"003",2008/03/12,780.00000000,FT,12.00000000,IN,0.00000000,,LAS CRUCES AREA OFFICE,JOHN PIJAWKA,"-1"
"172",NM3513319,ALAMOGORDO DOMESTIC WATER SYSTEM,,L,ALAMOGORDO,OTERO,SW,35629.00000000,25011000.00000000,"13319080",C,12160.00000000,WELL #8,,WL,GW,P,32.96243000,-105.93611700,"003",2004/09/22,995.00000000,FT,14.00000000,IN,356.00000000,FT,LAS CRUCES AREA OFFICE,JOHN PIJAWKA,"-1"
"173",NM3513319,ALAMOGORDO DOMESTIC WATER SYSTEM,,L,ALAMOGORDO,OTERO,SW,35629.00000000,25011000.00000000,"13319072",C,9456.00000000,PRATHER WELL #1 (NORTH),,WL,GW,P,32.79630300,-105.98143200,"003",2004/09/22,330.00000000,FT,12.00000000,IN,0.00000000,,LAS CRUCES AREA OFFICE,JOHN PIJAWKA,"-1"
"174",NM3513319,ALAMOGORDO DOMESTIC WATER SYSTEM,,L,ALAMOGORDO,OTERO,SW,35629.00000000,25011000.00000000,"13319073",C,9457.00000000,PRATHER WELL #2 (SOUTH),,WL,GW,P,32.78651200,-105.98251800,"003",2004/09/22,320.00000000,FT,12.00000000,IN,0.00000000,,LAS CRUCES AREA OFFICE,JOHN PIJAWKA,"-1"
"175",NM3513319,ALAMOGORDO DOMESTIC WATER SYSTEM,,L,ALAMOGORDO,OTERO,SW,35629.00000000,25011000.00000000,"13319014",C,12189.00000000,COVERED RAW WATER RESERVOIRS #1 - #3,,RS,SW,P,32.97035700,-105.93415400,"003",2004/09/22,0.00000000,,0.00000000,,0.00000000,,LAS CRUCES AREA OFFICE,JOHN PIJAWKA,"-1"
"176",NM3513319,ALAMOGORDO DOMESTIC WATER SYSTEM,,L,ALAMOGORDO,OTERO,SW,35629.00000000,25011000.00000000,"13319004",C,12179.00000000,CABALLERO CANYON SPRINGS,,SP,SW,P,32.87612900,-105.83678900,"003",2004/09/24,0.00000000,,0.00000000,,0.00000000,,LAS CRUCES AREA OFFICE,JOHN PIJAWKA,"-1"
"177",NM3513319,ALAMOGORDO DOMESTIC WATER SYSTEM,,L,ALAMOGORDO,OTERO,SW,35629.00000000,25011000.00000000,"13319034",C,8933.00000000,UPPER SPRINGER INFILTRATION GALLERY,,IG,SW,P,32.97361100,-105.90333300,"003",2004/09/22,0.00000000,,0.00000000,,0.00000000,,LAS CRUCES AREA OFFICE,JOHN PIJAWKA,"-1"
"178",NM3513319,ALAMOGORDO DOMESTIC WATER SYSTEM,,L,ALAMOGORDO,OTERO,SW,35629.00000000,25011000.00000000,"13319033",C,8932.00000000,LOWER MARUCHE INFILTRATION GALLERY,,IG,SW,P,32.99504200,-105.83862000,"003",2004/09/22,0.00000000,,0.00000000,,0.00000000,,LAS CRUCES AREA OFFICE,JOHN PIJAWKA,"-1"
"179",NM3513319,ALAMOGORDO DOMESTIC WATER SYSTEM,,L,ALAMOGORDO,OTERO,SW,35629.00000000,25011000.00000000,"13319008",C,12183.00000000,CROCKET SPRINGS,,SP,SW,P,33.01409600,-105.84667000,"003",2004/09/23,0.00000000,,0.00000000,,0.00000000,,LAS CRUCES AREA OFFICE,JOHN PIJAWKA,"-1"
"180",NM3513319,ALAMOGORDO DOMESTIC WATER SYSTEM,,L,ALAMOGORDO,OTERO,SW,35629.00000000,25011000.00000000,"13319009",C,12184.00000000,UPPER MARUCHE SPRINGS,,SP,SW,P,32.99504200,-105.83862000,"003",2004/09/22,0.00000000,,0.00000000,,0.00000000,,LAS CRUCES AREA OFFICE,JOHN PIJAWKA,"-1"
"181",NM3513319,ALAMOGORDO DOMESTIC WATER SYSTEM,,L,ALAMOGORDO,OTERO,SW,35629.00000000,25011000.00000000,"13319001",C,12175.00000000,ALAMO CANYON SPRINGS,,SP,SW,P,32.85479200,-105.83845500,"003",2004/09/24,0.00000000,,0.00000000,,0.00000000,,LAS CRUCES AREA OFFICE,JOHN PIJAWKA,"-1"
"182",NM3513319,ALAMOGORDO DOMESTIC WATER SYSTEM,,L,ALAMOGORDO,OTERO,SW,35629.00000000,25011000.00000000,"13319003",C,12178.00000000,GORDON CANYON SPRINGS,,SP,SW,P,32.83131500,-105.82325500,"003",2004/09/24,0.00000000,,0.00000000,,0.00000000,,LAS CRUCES AREA OFFICE,JOHN PIJAWKA,"-1"
"183",NM3513319,ALAMOGORDO DOMESTIC WATER SYSTEM,,L,ALAMOGORDO,OTERO,SW,35629.00000000,25011000.00000000,"13319013",C,12188.00000000,FRESNAL CANYON SPRINGS,,SP,SW,P,32.87277700,-105.94527700,"003",2004/09/22,0.00000000,,0.00000000,,0.00000000,,LAS CRUCES AREA OFFICE,JOHN PIJAWKA,"-1"
"184",NM3513319,ALAMOGORDO DOMESTIC WATER SYSTEM,,L,ALAMOGORDO,OTERO,SW,35629.00000000,25011000.00000000,"13319092",C,14392.00000000,SNAKE TANK WELL 5,,WL,GW,P,33.21060700,-106.04033600,"003",2019/11/05,0.00000000,,0.00000000,,0.00000000,,LAS CRUCES AREA OFFICE,JOHN PIJAWKA,"-1"
"185",NM3513319,ALAMOGORDO DOMESTIC WATER SYSTEM,,L,ALAMOGORDO,OTERO,SW,35629.00000000,25011000.00000000,"13319012",C,12187.00000000,LOWER SPRINGER SPRINGS,,SP,SW,P,32.98348300,-105.82316000,"003",2004/09/22,0.00000000,,0.00000000,,0.00000000,,LAS CRUCES AREA OFFICE,JOHN PIJAWKA,"-1"
"186",NM3513319,ALAMOGORDO DOMESTIC WATER SYSTEM,,L,ALAMOGORDO,OTERO,SW,35629.00000000,25011000.00000000,"13319020",C,7003.00000000,FRESNAL CANYON DIVERSIONS & SPRINGS,,IN,SW,P,32.95825800,-105.88270200,"003",2004/09/23,0.00000000,,0.00000000,,0.00000000,,LAS CRUCES AREA OFFICE,JOHN PIJAWKA,"-1"
"187",NM3513319,ALAMOGORDO DOMESTIC WATER SYSTEM,,L,ALAMOGORDO,OTERO,SW,35629.00000000,25011000.00000000,"13319002",C,12177.00000000,BONITO LAKE,,RS,SW,P,33.45570800,-105.73136000,"003",2004/09/24,0.00000000,,0.00000000,,0.00000000,,LAS CRUCES AREA OFFICE,JOHN PIJAWKA,"0"
"188",NM3513319,ALAMOGORDO DOMESTIC WATER SYSTEM,,L,ALAMOGORDO,OTERO,SW,35629.00000000,25011000.00000000,"13319017",C,12196.00000000,ALAMO-HOLLOMAN BOOSTER STATION & CC,,CH,SW,P,32.87236100,-105.96586100,"003",2008/03/12,0.00000000,,0.00000000,,0.00000000,,LAS CRUCES AREA OFFICE,JOHN PIJAWKA,"0"
"189",NM3513319,ALAMOGORDO DOMESTIC WATER SYSTEM,,L,ALAMOGORDO,OTERO,SW,35629.00000000,25011000.00000000,"13319074",C,10668.00000000,BONITO LAKE INTAKE,,IN,SW,P,33.45570800,-105.73136100,"003",2004/08/26,0.00000000,,0.00000000,,0.00000000,,LAS CRUCES AREA OFFICE,JOHN PIJAWKA,"0"
"197",NM3590024,NAVAJO LAKE STATE PARK - COTTONWOOD CAMP,,S,NAVAJO DAM,SAN JUAN,GU,200.00000000,43750.00000000,"90024001",NC,8941.00000000,INFILTRATION GALLERY # 1,,IG,GU,P,36.80800000,-107.67799000,"003",2020/01/15,0.00000000,,0.00000000,,0.00000000,,SANTA FE AREA OFFICE,JAMES JONES,"-1"
"198",NM3590024,NAVAJO LAKE STATE PARK - COTTONWOOD CAMP,,S,NAVAJO DAM,SAN JUAN,GU,200.00000000,43750.00000000,"90024003",NC,9477.00000000,WELL #1,,WL,GW,E,36.80861100,-107.67638900,"003",2003/10/06,46.00000000,FT,6.00000000,IN,28.00000000,FT,SANTA FE AREA OFFICE,JAMES JONES,"0"
"224",NM3518025,LAS VEGAS (CITY OF),,L,LAS VEGAS,SAN MIGUEL,SW,18044.00000000,8100000.00000000,"18025002",C,2566.00000000,WELL #2,,WL,GW,P,35.56741300,-105.24708300,"003",,744.00000000,FT,0.00000000,,0.00000000,,SANTA FE AREA OFFICE,SF FRANK BACA,"-1"
"225",NM3518025,LAS VEGAS (CITY OF),,L,LAS VEGAS,SAN MIGUEL,SW,18044.00000000,8100000.00000000,"18025003",C,2567.00000000,WELL #4,TYLER WELL #4,WL,GW,P,35.56295600,-105.24772600,"003",,829.00000000,FT,16.00000000,IN,80.00000000,FT,SANTA FE AREA OFFICE,SF FRANK BACA,"-1"
"226",NM3518025,LAS VEGAS (CITY OF),,L,LAS VEGAS,SAN MIGUEL,SW,18044.00000000,8100000.00000000,"18025022",C,14078.00000000,PETERSON RESERVOIR,,RS,SW,P,35.64984400,-105.27942500,"003",2018/02/12,0.00000000,,0.00000000,,0.00000000,,SANTA FE AREA OFFICE,SF FRANK BACA,"-1"
"227",NM3518025,LAS VEGAS (CITY OF),,L,LAS VEGAS,SAN MIGUEL,SW,18044.00000000,8100000.00000000,"18025013",C,10869.00000000,SETTLING BASIN - GALLINAS RIVER DIV. DAM,,RS,SW,P,35.65007500,-105.30922500,"003",2014/09/23,0.00000000,,0.00000000,,0.00000000,,SANTA FE AREA OFFICE,SF FRANK BACA,"-1"
"228",NM3518025,LAS VEGAS (CITY OF),,L,LAS VEGAS,SAN MIGUEL,SW,18044.00000000,8100000.00000000,"18025001",C,7013.00000000,GALLINAS RIVER DIVERSION DAM INTAKE,,IN,SW,P,35.64985000,-105.31655800,"003",2014/09/23,0.00000000,,0.00000000,,0.00000000,,SANTA FE AREA OFFICE,SF FRANK BACA,"-1"
"229",NM3518025,LAS VEGAS (CITY OF),,L,LAS VEGAS,SAN MIGUEL,SW,18044.00000000,8100000.00000000,"18025004",C,2568.00000000,WELL #5,,WL,GW,P,35.57799700,-105.25125100,"003",,744.00000000,FT,0.00000000,,150.00000000,FT,SANTA FE AREA OFFICE,SF FRANK BACA,"0"
"230",NM3518025,LAS VEGAS (CITY OF),,L,LAS VEGAS,SAN MIGUEL,SW,18044.00000000,8100000.00000000,"18025005",C,2569.00000000,WELL #6,,WL,GW,P,35.57176400,-105.24913000,"003",,880.00000000,FT,0.00000000,,105.00000000,FT,SANTA FE AREA OFFICE,SF FRANK BACA,"0"
"231",NM3518025,LAS VEGAS (CITY OF),,L,LAS VEGAS,SAN MIGUEL,SW,18044.00000000,8100000.00000000,"18025015",C,10871.00000000,BRADNER LAKE DAM INTAKE,,IN,SW,P,35.64782100,-105.27445400,"003",2005/03/23,0.00000000,,0.00000000,,0.00000000,,SANTA FE AREA OFFICE,SF FRANK BACA,"0"
"232",NM3518025,LAS VEGAS (CITY OF),,L,LAS VEGAS,SAN MIGUEL,SW,18044.00000000,8100000.00000000,"18025030",C,14084.00000000,WELL #2R,,WL,GW,P,35.56747000,-105.24733800,"003",2018/02/12,0.00000000,,0.00000000,,0.00000000,,SANTA FE AREA OFFICE,SF FRANK BACA,"0"
"233",NM3518025,LAS VEGAS (CITY OF),,L,LAS VEGAS,SAN MIGUEL,SW,18044.00000000,8100000.00000000,"18025012",C,10593.00000000,INFILTRATION GALLERY #1,,IG,GU,P,35.64930200,-105.27415500,"003",2014/09/23,0.00000000,,0.00000000,,0.00000000,,SANTA FE AREA OFFICE,SF FRANK BACA,"0"
"234",NM3518025,LAS VEGAS (CITY OF),,L,LAS VEGAS,SAN MIGUEL,SW,18044.00000000,8100000.00000000,"18025014",C,10870.00000000,PETERSON LAKE DAM INTAKE,,IN,SW,P,35.64984400,-105.27942500,"003",2014/09/23,0.00000000,,0.00000000,,0.00000000,,SANTA FE AREA OFFICE,SF FRANK BACA,"0"
"235",NM3518025,LAS VEGAS (CITY OF),,L,LAS VEGAS,SAN MIGUEL,SW,18044.00000000,8100000.00000000,"18025023",C,14079.00000000,BRADNER RESERVOIR,,RS,SW,P,35.64782100,-105.27445400,"003",2018/02/12,0.00000000,,0.00000000,,0.00000000,,SANTA FE AREA OFFICE,SF FRANK BACA,"0"
"236",NM3518025,LAS VEGAS (CITY OF),,L,LAS VEGAS,SAN MIGUEL,SW,18044.00000000,8100000.00000000,"18025016",C,10872.00000000,STORRIE LAKE DAM INTAKE,,IN,SW,P,35.66479300,-105.22792500,"003",2005/03/23,0.00000000,,0.00000000,,0.00000000,,SANTA FE AREA OFFICE,SF FRANK BACA,"0"
"310",NM3509824,AZTEC DOMESTIC WATER SYSTEM,,L,AZTEC,SAN JUAN,SW,5960.00000000,7057000.00000000,"09824019",C,13697.00000000,RESERVOIR #3,,RS,SW,P,36.82122000,-107.96593000,"003",2017/08/15,0.00000000,,0.00000000,,0.00000000,,SANTA FE AREA OFFICE,JAMES JONES,"-1"
"311",NM3509824,AZTEC DOMESTIC WATER SYSTEM,,L,AZTEC,SAN JUAN,SW,5960.00000000,7057000.00000000,"09824016",C,10278.00000000,CLEAR WELL (EP),,CW,SW,P,36.83576000,-107.97749000,"003",2017/08/16,0.00000000,,0.00000000,,0.00000000,,SANTA FE AREA OFFICE,JAMES JONES,"-1"
"312",NM3509824,AZTEC DOMESTIC WATER SYSTEM,,L,AZTEC,SAN JUAN,SW,5960.00000000,7057000.00000000,"09824001",C,6988.00000000,ANIMAS RIVER HEADGATE,,IN,SW,P,36.03839000,-107.99235000,"003",2017/08/16,0.00000000,,0.00000000,,0.00000000,,SANTA FE AREA OFFICE,JAMES JONES,"-1"
"313",NM3509824,AZTEC DOMESTIC WATER SYSTEM,,L,AZTEC,SAN JUAN,SW,5960.00000000,7057000.00000000,"09824006",C,9099.00000000,RESERVOIR #1,OLD RESERVOIR,RS,SW,P,36.83485000,-107.97527000,"003",2017/08/15,0.00000000,,0.00000000,,0.00000000,,SANTA FE AREA OFFICE,JAMES JONES,"-1"
"314",NM3509824,AZTEC DOMESTIC WATER SYSTEM,,L,AZTEC,SAN JUAN,SW,5960.00000000,7057000.00000000,"09824007",C,9100.00000000,LOWER EAST AZTEC STORAGE TANK,,RS,SW,P,36.81979000,-107.92648000,"003",2017/08/16,0.00000000,,0.00000000,,0.00000000,,SANTA FE AREA OFFICE,JAMES JONES,"-1"
"315",NM3509824,AZTEC DOMESTIC WATER SYSTEM,,L,AZTEC,SAN JUAN,SW,5960.00000000,7057000.00000000,"09824003",C,6990.00000000,ANIMAS RIVER PUMP,,IN,SW,P,36.83745000,-107.99242000,"003",2017/08/15,0.00000000,,0.00000000,,0.00000000,,SANTA FE AREA OFFICE,JAMES JONES,"-1"
"316",NM3509824,AZTEC DOMESTIC WATER SYSTEM,,L,AZTEC,SAN JUAN,SW,5960.00000000,7057000.00000000,"09824002",C,6989.00000000,INTAKE #2,ANIMAS RIVER - UPPER DITCH,IN,SW,P,36.92055900,-107.90930200,"003",2003/03/11,0.00000000,,0.00000000,,0.00000000,,SANTA FE AREA OFFICE,JAMES JONES,"0"
"346",NM3590924,NAVAJO LAKE STATE PARK - PINE SITE,,S,NAVAJO DAM,SAN JUAN,SW,550.00000000,200000.00000000,"90924001",NC,7034.00000000,NAVAJO RESERVOIR INTAKE,,IN,SW,P,36.82333000,-107.61566900,"003",2004/10/13,0.00000000,,0.00000000,,0.00000000,,SANTA FE AREA OFFICE,JAMES JONES,"-1"
"237",NM3518025,LAS VEGAS (CITY OF),,L,LAS VEGAS,SAN MIGUEL,SW,18044.00000000,8100000.00000000,"18025024",C,14080.00000000,STORRIE RESERVOIR,,RS,SW,P,35.66479300,-105.22792500,"003",2018/02/12,0.00000000,,0.00000000,,0.00000000,,SANTA FE AREA OFFICE,SF FRANK BACA,"0"
"238",NM3518025,LAS VEGAS (CITY OF),,L,LAS VEGAS,SAN MIGUEL,SW,18044.00000000,8100000.00000000,"18025026",C,14077.00000000,RAW WATER INTAKE,,IN,SW,P,36.80788100,-107.86968200,"003",2018/02/08,0.00000000,,0.00000000,,0.00000000,,SANTA FE AREA OFFICE,SF FRANK BACA,"0"
"239",NM3518025,LAS VEGAS (CITY OF),,L,LAS VEGAS,SAN MIGUEL,SW,18044.00000000,8100000.00000000,"18025031",C,14085.00000000,WELL #7,,WL,GW,P,35.56736100,-105.24703800,"003",2018/02/12,0.00000000,,0.00000000,,0.00000000,,SANTA FE AREA OFFICE,SF FRANK BACA,"0"
"587",NM3530504,PHILMONT BOY SCOUT RANCH - HEADQUARTERS,,P,,COLFAX,SW,2000.00000000,1000000.00000000,"30504005",C,11330.00000000,WELL #1 (ROCKY MOUNTIAN WELL),ROCKY MOUNTAIN WELL,WL,GW,P,36.43512500,-104.99747800,"003",2019/04/03,645.00000000,FT,0.00000000,,46.00000000,FT,SANTA FE AREA OFFICE,GREG QUARTIERI,"-1"
"588",NM3530504,PHILMONT BOY SCOUT RANCH - HEADQUARTERS,,P,,COLFAX,SW,2000.00000000,1000000.00000000,"30504006",C,11331.00000000,WELL #2 (PHILLIPS WELL),PHILLIPS WELL,WL,GW,P,36.43437900,-105.00552000,"003",2019/04/03,1300.00000000,FT,0.00000000,,300.00000000,FT,SANTA FE AREA OFFICE,GREG QUARTIERI,"-1"
"589",NM3530504,PHILMONT BOY SCOUT RANCH - HEADQUARTERS,,P,,COLFAX,SW,2000.00000000,1000000.00000000,"30504009",C,13525.00000000,NATURE TRAIL WELL,,WL,GW,P,36.46282200,-104.94927000,"003",2019/04/03,105.00000000,FT,0.00000000,,22.00000000,FT,SANTA FE AREA OFFICE,GREG QUARTIERI,"-1"
"590",NM3530504,PHILMONT BOY SCOUT RANCH - HEADQUARTERS,,P,,COLFAX,SW,2000.00000000,1000000.00000000,"30504001",C,7021.00000000,INTAKE #1,URRACA AND PHILLIPS RESERVOIRS,IN,SW,P,36.43444400,-105.00861100,"003",2011/11/15,0.00000000,,0.00000000,,0.00000000,,SANTA FE AREA OFFICE,GREG QUARTIERI,"-1"
"777",NM3501024,PINE RIVER MDCA,,L,NAVAJO DAM,SAN JUAN,GU,44.00000000,1200.00000000,"01024001",C,10655.00000000,WELL #1,,WL,GU,P,36.99972200,-107.60111100,"003",2005/03/18,20.00000000,FT,8.00000000,IN,0.00000000,,SANTA FE AREA OFFICE,JAMES JONES,"-1"
"890",NM3526704,CITY OF RATON/RATON WATER WORKS,,L,RATON,COLFAX,SW,9733.00000000,7410000.00000000,"26704003",C,7020.00000000,INTAKE #1 (LAKE MALOYA),LAKE MALOYA,IN,SW,P,36.98382800,-104.37587300,"003",2007/02/20,0.00000000,,0.00000000,,0.00000000,,SANTA FE AREA OFFICE,GREG QUARTIERI,"-1"
"891",NM3526704,CITY OF RATON/RATON WATER WORKS,,L,RATON,COLFAX,SW,9733.00000000,7410000.00000000,"26704001",C,7018.00000000,INTAKE #2 (CIMARRON DIVERSION),CIMARRON DIVERSION,IN,SW,P,36.52017400,-104.99792000,"003",2007/02/20,0.00000000,,0.00000000,,0.00000000,,SANTA FE AREA OFFICE,GREG QUARTIERI,"-1"
"892",NM3526704,CITY OF RATON/RATON WATER WORKS,,L,RATON,COLFAX,SW,9733.00000000,7410000.00000000,"26704011",C,12645.00000000,STORAGE TANK #5 (RAW WATER TANK - PLANT),,RS,SW,P,36.91935800,-104.43295800,"003",2007/02/20,0.00000000,,0.00000000,,0.00000000,,SANTA FE AREA OFFICE,GREG QUARTIERI,"-1"
"893",NM3526704,CITY OF RATON/RATON WATER WORKS,,L,RATON,COLFAX,SW,9733.00000000,7410000.00000000,"26704002",C,7019.00000000,INTAKE #3,LAKE ALICE,IN,SW,P,36.95383600,-104.38584000,"003",,0.00000000,,0.00000000,,0.00000000,,SANTA FE AREA OFFICE,GREG QUARTIERI,"0"
"894",NM3526704,CITY OF RATON/RATON WATER WORKS,,L,RATON,COLFAX,SW,9733.00000000,7410000.00000000,"26704015",C,11779.00000000,LAKE MALOYA RESERVOIR,,RS,SW,P,36.98382800,-104.37587300,"003",2007/02/20,0.00000000,,0.00000000,,0.00000000,,SANTA FE AREA OFFICE,GREG QUARTIERI,"0"
"822",NM3595017,TRI-STATE GENERATING STATION,,P,PREWITT,MCKINLEY,SW,125.00000000,880000.00000000,"95017002",NTNC,10547.00000000,WELL #5,,WL,GW,P,35.42545000,-108.07944000,"003",2020/04/21,1445.00000000,FT,8.00000000,IN,225.00000000,FT,SANTA FE AREA OFFICE,JAMES JONES,"-1"
"823",NM3595017,TRI-STATE GENERATING STATION,,P,PREWITT,MCKINLEY,SW,125.00000000,880000.00000000,"95017015",NTNC,10550.00000000,WELL #2,,WL,GW,P,35.42199000,-108.07861000,"003",2020/04/21,1554.00000000,FT,8.00000000,IN,280.00000000,FT,SANTA FE AREA OFFICE,JAMES JONES,"-1"
"824",NM3595017,TRI-STATE GENERATING STATION,,P,PREWITT,MCKINLEY,SW,125.00000000,880000.00000000,"95017008",NTNC,4864.00000000,WELL B-7,(OFF-SITE WELL B-7),WL,GW,P,35.27908000,-107.98400000,"003",2020/04/21,472.00000000,FT,16.00000000,IN,156.00000000,FT,SANTA FE AREA OFFICE,JAMES JONES,"-1"
"825",NM3595017,TRI-STATE GENERATING STATION,,P,PREWITT,MCKINLEY,SW,125.00000000,880000.00000000,"95017009",NTNC,4865.00000000,WELL B-18,(OFF-SITE WELL B-18),WL,GW,P,35.20370000,-107.90842000,"003",2020/04/21,165.00000000,FT,16.00000000,IN,100.00000000,FT,SANTA FE AREA OFFICE,JAMES JONES,"-1"
"826",NM3595017,TRI-STATE GENERATING STATION,,P,PREWITT,MCKINLEY,SW,125.00000000,880000.00000000,"95017010",NTNC,4866.00000000,WELL B-19,(OFF-SITE WELL B-19),WL,GW,P,35.20362000,-107.91558000,"003",2020/04/21,150.00000000,FT,14.00000000,IN,97.00000000,FT,SANTA FE AREA OFFICE,JAMES JONES,"-1"
"827",NM3595017,TRI-STATE GENERATING STATION,,P,PREWITT,MCKINLEY,SW,125.00000000,880000.00000000,"95017011",NTNC,4867.00000000,WELL B-44,(OFF-SITE WELL B-44),WL,GW,P,35.23429000,-107.88884000,"003",2020/04/21,542.00000000,FT,16.00000000,IN,119.00000000,FT,SANTA FE AREA OFFICE,JAMES JONES,"-1"
"828",NM3595017,TRI-STATE GENERATING STATION,,P,PREWITT,MCKINLEY,SW,125.00000000,880000.00000000,"95017013",NTNC,8638.00000000,RESERVOIR #1,SURFACE WATER RESERVOIR #1,RS,SW,P,35.41369400,-108.08858300,"003",2004/03/24,0.00000000,,0.00000000,,0.00000000,,SANTA FE AREA OFFICE,JAMES JONES,"-1"
"829",NM3595017,TRI-STATE GENERATING STATION,,P,PREWITT,MCKINLEY,SW,125.00000000,880000.00000000,"95017003",NTNC,10548.00000000,WELL #2,,WL,GW,P,35.42200000,-108.07858300,"003",2004/04/21,1664.00000000,FT,8.00000000,IN,235.00000000,FT,SANTA FE AREA OFFICE,JAMES JONES,"0"
"830",NM3595017,TRI-STATE GENERATING STATION,,P,PREWITT,MCKINLEY,SW,125.00000000,880000.00000000,"95017004",NTNC,10549.00000000,WELL #4,,WL,GW,P,35.42688900,-108.08583300,"003",2004/04/21,1790.00000000,FT,8.00000000,IN,280.00000000,FT,SANTA FE AREA OFFICE,JAMES JONES,"0"
"927",NM3526204,CIMARRON WATER SYSTEM,,L,CIMARRON,COLFAX,SW,969.00000000,490000.00000000,"26204001",C,7015.00000000,CIMARRONCITO RESERVOIR INTAKE,,IN,SW,P,36.48114600,-105.05556000,"003",2005/11/15,0.00000000,,0.00000000,,0.00000000,,SANTA FE AREA OFFICE,GREG QUARTIERI,"-1"
"953",NM3509223,LA JARA WATER USERS ASSOCIATION,,L,LA JARA,SANDOVAL,SW,250.00000000,187000.00000000,"09223003",C,9140.00000000,INTAKE #1,LA JARA CREEK INTAKE,IN,SW,P,36.12667000,-106.91175000,"003",2017/05/11,0.00000000,,0.00000000,,0.00000000,,SANTA FE AREA OFFICE,SF FRANK BACA,"-1"
"954",NM3509223,LA JARA WATER USERS ASSOCIATION,,L,LA JARA,SANDOVAL,SW,250.00000000,187000.00000000,"09223001",C,7232.00000000,INFILTRATION GALLERY #1,,IG,SW,P,36.10418500,-106.94059600,"003",,0.00000000,,0.00000000,,0.00000000,,SANTA FE AREA OFFICE,SF FRANK BACA,"0"
"1167",NM3510124,BLOOMFIELD WATER SUPPLY SYSTEM,,L,BLOOMFIELD,SAN JUAN,SW,7090.00000000,3100000.00000000,"10124001",C,10430.00000000,BLOOMFIELD IRRIGATION DITCH,,IN,SW,P,36.71675000,-107.91714000,"003",2017/08/31,0.00000000,,0.00000000,,0.00000000,,SANTA FE AREA OFFICE,JAMES JONES,"-1"
"1168",NM3510124,BLOOMFIELD WATER SUPPLY SYSTEM,,L,BLOOMFIELD,SAN JUAN,SW,7090.00000000,3100000.00000000,"10124012",C,12745.00000000,ARAGON RESERVOIR (RAW),,RS,SW,P,36.71780000,-107.81754000,"003",2017/08/31,0.00000000,,0.00000000,,0.00000000,,SANTA FE AREA OFFICE,JAMES JONES,"-1"
"1064",NM3526604,SPRINGER WATER SYSTEM,,L,SPRINGER,COLFAX,SW,1363.00000000,650000.00000000,"26604001",C,7017.00000000,LOWER RESERVOIR INTAKE,,IN,SW,P,36.39277800,-104.61166700,"003",2011/11/15,0.00000000,,0.00000000,,0.00000000,,SANTA FE AREA OFFICE,GREG QUARTIERI,"-1"
"1313",NM3505126,SANTA FE WATER SYSTEM (CITY OF),,L,SANTA FE,SANTA FE,SW,78247.00000000,36150000.00000000,"05126001",C,1937.00000000,AGUA FRIA WELL,,WL,GW,P,35.67808300,-105.97100000,"003",2010/09/27,740.00000000,FT,16.00000000,IN,179.00000000,FT,SANTA FE AREA OFFICE,WAYNE JEFFS,"-1"
"1314",NM3505126,SANTA FE WATER SYSTEM (CITY OF),,L,SANTA FE,SANTA FE,SW,78247.00000000,36150000.00000000,"05126002",C,1938.00000000,ALTO WELL,,WL,GW,P,35.68564000,-105.96133300,"003",2010/09/27,746.00000000,FT,12.00000000,IN,410.00000000,FT,SANTA FE AREA OFFICE,WAYNE JEFFS,"-1"
"1315",NM3505126,SANTA FE WATER SYSTEM (CITY OF),,L,SANTA FE,SANTA FE,SW,78247.00000000,36150000.00000000,"05126003",C,1939.00000000,BUCKMAN #1,,WL,GW,P,35.83522200,-106.15841600,"003",2010/09/27,1200.00000000,FT,16.00000000,IN,387.00000000,FT,SANTA FE AREA OFFICE,WAYNE JEFFS,"-1"
"1316",NM3505126,SANTA FE WATER SYSTEM (CITY OF),,L,SANTA FE,SANTA FE,SW,78247.00000000,36150000.00000000,"05126004",C,1940.00000000,BUCKMAN #2,,WL,GW,P,35.82913700,-106.15652400,"003",2007/11/26,1593.00000000,FT,16.00000000,IN,280.00000000,FT,SANTA FE AREA OFFICE,WAYNE JEFFS,"-1"
"1317",NM3505126,SANTA FE WATER SYSTEM (CITY OF),,L,SANTA FE,SANTA FE,SW,78247.00000000,36150000.00000000,"05126006",C,1942.00000000,BUCKMAN #4,,WL,GW,P,35.82055500,-106.14866600,"003",2010/09/27,1225.00000000,FT,16.00000000,IN,432.00000000,FT,SANTA FE AREA OFFICE,WAYNE JEFFS,"-1"
"1318",NM3505126,SANTA FE WATER SYSTEM (CITY OF),,L,SANTA FE,SANTA FE,SW,78247.00000000,36150000.00000000,"05126007",C,1943.00000000,BUCKMAN #5,,WL,GW,P,35.81458300,-106.14844400,"003",2010/09/27,1190.00000000,FT,16.00000000,IN,205.00000000,FT,SANTA FE AREA OFFICE,WAYNE JEFFS,"-1"
"1319",NM3505126,SANTA FE WATER SYSTEM (CITY OF),,L,SANTA FE,SANTA FE,SW,78247.00000000,36150000.00000000,"05126008",C,1944.00000000,BUCKMAN #6,,WL,GW,P,35.81883300,-106.14231000,"003",2010/09/27,951.00000000,FT,16.00000000,IN,275.00000000,FT,SANTA FE AREA OFFICE,WAYNE JEFFS,"-1"
"1320",NM3505126,SANTA FE WATER SYSTEM (CITY OF),,L,SANTA FE,SANTA FE,SW,78247.00000000,36150000.00000000,"05126009",C,1945.00000000,BUCKMAN #7,,WL,GW,P,35.83394400,-106.15114000,"003",2010/09/27,1415.00000000,FT,24.00000000,IN,266.00000000,FT,SANTA FE AREA OFFICE,WAYNE JEFFS,"-1"
"1321",NM3505126,SANTA FE WATER SYSTEM (CITY OF),,L,SANTA FE,SANTA FE,SW,78247.00000000,36150000.00000000,"05126010",C,1946.00000000,FERGUSON WELL,,WL,GW,P,35.68769400,-105.95772200,"003",2010/09/27,750.00000000,FT,14.00000000,IN,300.00000000,FT,SANTA FE AREA OFFICE,WAYNE JEFFS,"-1"
"1322",NM3505126,SANTA FE WATER SYSTEM (CITY OF),,L,SANTA FE,SANTA FE,SW,78247.00000000,36150000.00000000,"05126012",C,1948.00000000,ST MICHAELS WELL,,WL,GW,P,35.65908300,-105.96569400,"003",2010/09/27,800.00000000,FT,16.00000000,IN,282.00000000,FT,SANTA FE AREA OFFICE,WAYNE JEFFS,"-1"
"1323",NM3505126,SANTA FE WATER SYSTEM (CITY OF),,L,SANTA FE,SANTA FE,SW,78247.00000000,36150000.00000000,"05126014",C,1949.00000000,TORREON WELL,,WL,GW,P,35.68478000,-105.96747200,"003",2010/09/27,1230.00000000,FT,16.00000000,IN,215.00000000,FT,SANTA FE AREA OFFICE,WAYNE JEFFS,"-1"
"1324",NM3505126,SANTA FE WATER SYSTEM (CITY OF),,L,SANTA FE,SANTA FE,SW,78247.00000000,36150000.00000000,"05126016",C,1950.00000000,OSAGE WELL,,WL,GW,P,35.67272200,-105.97975000,"003",2010/09/27,770.00000000,FT,16.00000000,IN,100.00000000,FT,SANTA FE AREA OFFICE,WAYNE JEFFS,"-1"
"1325",NM3505126,SANTA FE WATER SYSTEM (CITY OF),,L,SANTA FE,SANTA FE,SW,78247.00000000,36150000.00000000,"05126017",C,1951.00000000,BUCKMAN #8,,WL,GW,P,35.83275900,-106.16509800,"003",2018/03/07,910.00000000,FT,16.00000000,IN,37.00000000,FT,SANTA FE AREA OFFICE,WAYNE JEFFS,"-1"
"1326",NM3505126,SANTA FE WATER SYSTEM (CITY OF),,L,SANTA FE,SANTA FE,SW,78247.00000000,36150000.00000000,"05126019",C,1953.00000000,BUCKMAN #3A,,WL,GW,P,35.82702600,-106.14949600,"003",2007/11/26,1500.00000000,FT,16.00000000,IN,365.00000000,FT,SANTA FE AREA OFFICE,WAYNE JEFFS,"-1"
"1327",NM3505126,SANTA FE WATER SYSTEM (CITY OF),,L,SANTA FE,SANTA FE,SW,78247.00000000,36150000.00000000,"05126020",C,1954.00000000,NORTHWEST WELL,,WL,GW,P,35.71731000,-105.96069000,"003",2010/09/27,2000.00000000,FT,14.00000000,IN,450.00000000,FT,SANTA FE AREA OFFICE,WAYNE JEFFS,"-1"
"1328",NM3505126,SANTA FE WATER SYSTEM (CITY OF),,L,SANTA FE,SANTA FE,SW,78247.00000000,36150000.00000000,"05126044",C,10198.00000000,BUCKMAN WELL #10,,WL,GW,E,35.77622200,-106.11353000,"003",2010/09/27,2016.00000000,FT,30.00000000,IN,332.00000000,FT,SANTA FE AREA OFFICE,WAYNE JEFFS,"-1"
"1329",NM3505126,SANTA FE WATER SYSTEM (CITY OF),,L,SANTA FE,SANTA FE,SW,78247.00000000,36150000.00000000,"05126046",C,10200.00000000,BUCKMAN WELL #12,,WL,GW,E,35.74494400,-106.09114000,"003",2010/09/27,1930.00000000,FT,30.00000000,IN,239.00000000,FT,SANTA FE AREA OFFICE,WAYNE JEFFS,"-1"
"1330",NM3505126,SANTA FE WATER SYSTEM (CITY OF),,L,SANTA FE,SANTA FE,SW,78247.00000000,36150000.00000000,"05126047",C,10201.00000000,BUCKMAN WELL #13,,WL,GW,E,35.73756400,-106.07313100,"003",2010/09/27,2018.00000000,FT,30.00000000,IN,296.72000000,FT,SANTA FE AREA OFFICE,WAYNE JEFFS,"-1"
"1331",NM3505126,SANTA FE WATER SYSTEM (CITY OF),,L,SANTA FE,SANTA FE,SW,78247.00000000,36150000.00000000,"05126043",C,8831.00000000,BUCKMAN #9,,WL,GW,P,35.82985900,-106.14227400,"003",2007/11/26,1363.00000000,FT,16.00000000,IN,610.00000000,FT,SANTA FE AREA OFFICE,WAYNE JEFFS,"-1"
"1332",NM3505126,SANTA FE WATER SYSTEM (CITY OF),,L,SANTA FE,SANTA FE,SW,78247.00000000,36150000.00000000,"05126045",C,10199.00000000,BUCKMAN WELL #11,,WL,GW,E,35.75581000,-106.10450000,"003",2010/09/27,2020.00000000,FT,30.00000000,IN,271.00000000,FT,SANTA FE AREA OFFICE,WAYNE JEFFS,"-1"
"1333",NM3505126,SANTA FE WATER SYSTEM (CITY OF),,L,SANTA FE,SANTA FE,SW,78247.00000000,36150000.00000000,"05126072",C,10212.00000000,NICHOLS RESERVOIR,,RS,SW,P,35.81269700,-106.02576100,"003",2004/12/10,0.00000000,,0.00000000,,0.00000000,,SANTA FE AREA OFFICE,WAYNE JEFFS,"-1"
"1334",NM3505126,SANTA FE WATER SYSTEM (CITY OF),,L,SANTA FE,SANTA FE,SW,78247.00000000,36150000.00000000,"05126077",C,13327.00000000,CONNECTION TO BUCKMAN REGIONAL WATER TP,,CC,SW,P,35.71247200,-106.01666600,"003",2014/02/20,0.00000000,,0.00000000,,0.00000000,,SANTA FE AREA OFFICE,WAYNE JEFFS,"-1"
"1335",NM3505126,SANTA FE WATER SYSTEM (CITY OF),,L,SANTA FE,SANTA FE,SW,78247.00000000,36150000.00000000,"05126053",C,10193.00000000,SURGE TANK #3 (150K),,OT,SW,P,35.73780700,-106.07328800,"003",2018/03/07,0.00000000,,0.00000000,,0.00000000,,SANTA FE AREA OFFICE,WAYNE JEFFS,"-1"
"1336",NM3505126,SANTA FE WATER SYSTEM (CITY OF),,L,SANTA FE,SANTA FE,SW,78247.00000000,36150000.00000000,"05126051",C,10191.00000000,SURGE TANK #1 (500K),,OT,SW,P,35.82224600,-106.14426700,"003",2018/03/07,0.00000000,,0.00000000,,0.00000000,,SANTA FE AREA OFFICE,WAYNE JEFFS,"-1"
"1337",NM3505126,SANTA FE WATER SYSTEM (CITY OF),,L,SANTA FE,SANTA FE,SW,78247.00000000,36150000.00000000,"05126013",C,6987.00000000,SURFACE INTAKE,,IN,SW,P,35.68984400,-105.88079000,"003",2010/09/27,0.00000000,,0.00000000,,0.00000000,,SANTA FE AREA OFFICE,WAYNE JEFFS,"-1"
"1338",NM3505126,SANTA FE WATER SYSTEM (CITY OF),,L,SANTA FE,SANTA FE,SW,78247.00000000,36150000.00000000,"05126052",C,10192.00000000,SURGE TANK #2 (150K),,OT,SW,P,35.77568000,-106.11374900,"003",2018/03/07,0.00000000,,0.00000000,,0.00000000,,SANTA FE AREA OFFICE,WAYNE JEFFS,"-1"
"1339",NM3505126,SANTA FE WATER SYSTEM (CITY OF),,L,SANTA FE,SANTA FE,SW,78247.00000000,36150000.00000000,"05126073",C,10213.00000000,MCCLURE RESERVOIR,,RS,SW,P,35.85036700,-106.02793000,"003",2004/12/10,0.00000000,,0.00000000,,0.00000000,,SANTA FE AREA OFFICE,WAYNE JEFFS,"-1"
"1340",NM3505126,SANTA FE WATER SYSTEM (CITY OF),,L,SANTA FE,SANTA FE,SW,78247.00000000,36150000.00000000,"05126005",C,1941.00000000,BUCKMAN #3,,WL,GW,P,35.82666600,-106.14911100,"003",2010/09/27,1500.00000000,FT,16.00000000,IN,377.00000000,FT,SANTA FE AREA OFFICE,WAYNE JEFFS,"0"
"1461",NM3536724,NAVAJO DAM DOMESTIC WATER CONSUMERS INC,,L,NAVAJO DAM,SAN JUAN,SW,538.00000000,88000.00000000,"36724001",C,9510.00000000,SAN JUAN RIVER INFILTRATION GALLERY,,IG,SW,P,36.80802700,-107.69594400,"003",2006/05/03,0.00000000,,0.00000000,,0.00000000,,SANTA FE AREA OFFICE,JAMES JONES,"-1"
"1462",NM3536724,NAVAJO DAM DOMESTIC WATER CONSUMERS INC,,L,NAVAJO DAM,SAN JUAN,SW,538.00000000,88000.00000000,"36724005",C,13817.00000000,RAW WATER INTAKE,,IN,SW,P,36.80788100,-107.69682200,"003",2015/07/30,0.00000000,,0.00000000,,0.00000000,,SANTA FE AREA OFFICE,JAMES JONES,"-1"
"1341",NM3505126,SANTA FE WATER SYSTEM (CITY OF),,L,SANTA FE,SANTA FE,SW,78247.00000000,36150000.00000000,"05126011",C,1947.00000000,SANTA FE WELL,,WL,GW,P,35.67597500,-105.96352100,"003",2007/11/26,1523.00000000,FT,16.00000000,IN,324.00000000,FT,SANTA FE AREA OFFICE,WAYNE JEFFS,"0"
"1342",NM3505126,SANTA FE WATER SYSTEM (CITY OF),,L,SANTA FE,SANTA FE,SW,78247.00000000,36150000.00000000,"05126074",C,10214.00000000,SANTA FE WATERSHED,,RS,SW,P,35.85067000,-106.02851000,"003",,0.00000000,,0.00000000,,0.00000000,,SANTA FE AREA OFFICE,WAYNE JEFFS,"0"
"1343",NM3505126,SANTA FE WATER SYSTEM (CITY OF),,L,SANTA FE,SANTA FE,SW,78247.00000000,36150000.00000000,"05126082",C,14096.00000000,SURGE TANK #4 (150K),,OT,,P,35.73780700,-106.07328800,"003",2017/10/11,0.00000000,,0.00000000,,0.00000000,,SANTA FE AREA OFFICE,WAYNE JEFFS,"0"
"1344",NM3505126,SANTA FE WATER SYSTEM (CITY OF),,L,SANTA FE,SANTA FE,SW,78247.00000000,36150000.00000000,"05126018",C,1952.00000000,COUNTRY CLUB WELL,,WL,GW,P,35.63152100,-106.04557000,"003",,0.00000000,,0.00000000,,0.00000000,,SANTA FE AREA OFFICE,WAYNE JEFFS,"0"
"1373",NM3514019,TULAROSA WATER SYSTEM,,L,TULAROSA,OTERO,SW,3996.00000000,3000000.00000000,"14019007",C,10882.00000000,CLEAR WELL,,CW,SW,P,33.08727800,-105.97802800,"003",2006/02/07,0.00000000,,0.00000000,,0.00000000,,LAS CRUCES AREA OFFICE,JOHN PIJAWKA,"-1"
"1374",NM3514019,TULAROSA WATER SYSTEM,,L,TULAROSA,OTERO,SW,3996.00000000,3000000.00000000,"14019011",C,12006.00000000,RAW WATER RESERVOIR,FROM RIO TULAROSA,RS,SW,P,33.08755500,-105.97886100,"003",2006/02/07,0.00000000,,0.00000000,,0.00000000,,LAS CRUCES AREA OFFICE,JOHN PIJAWKA,"-1"
"1375",NM3514019,TULAROSA WATER SYSTEM,,L,TULAROSA,OTERO,SW,3996.00000000,3000000.00000000,"14019001",C,7012.00000000,TULAROSA STREAM INTAKE,,IN,SW,P,33.09425000,-105.97397200,"003",2006/02/07,0.00000000,,0.00000000,,0.00000000,,LAS CRUCES AREA OFFICE,JOHN PIJAWKA,"-1"
"1376",NM3514019,TULAROSA WATER SYSTEM,,L,TULAROSA,OTERO,SW,3996.00000000,3000000.00000000,"14019002",C,2502.00000000,WELL #1,,WL,GW,P,33.07724400,-106.00614700,"003",,360.00000000,FT,0.00000000,,0.00000000,,LAS CRUCES AREA OFFICE,JOHN PIJAWKA,"0"
"1377",NM3514019,TULAROSA WATER SYSTEM,,L,TULAROSA,OTERO,SW,3996.00000000,3000000.00000000,"14019004",C,12312.00000000,WELL #2,,WL,GW,E,33.07905500,-106.02222200,"003",2008/05/28,0.00000000,,0.00000000,,0.00000000,,LAS CRUCES AREA OFFICE,JOHN PIJAWKA,"0"
"1514",NM3510224,FARMINGTON WATER SYSTEM,,L,FARMINGTON,SAN JUAN,SW,38000.00000000,24228667.00000000,"10224006",C,12003.00000000,FARMINGTON LAKE,,RS,SW,P,36.80000300,-108.10479300,"003",2000/11/07,0.00000000,,0.00000000,,0.00000000,,SANTA FE AREA OFFICE,JAMES JONES,"-1"
"1515",NM3510224,FARMINGTON WATER SYSTEM,,L,FARMINGTON,SAN JUAN,SW,38000.00000000,24228667.00000000,"10224003",C,6994.00000000,FARMERS DITCH PUMP STATION,,IN,SW,I,36.80188000,-108.09698000,"003",2017/12/13,0.00000000,,0.00000000,,0.00000000,,SANTA FE AREA OFFICE,JAMES JONES,"-1"
"1516",NM3510224,FARMINGTON WATER SYSTEM,,L,FARMINGTON,SAN JUAN,SW,38000.00000000,24228667.00000000,"10224001",C,6992.00000000,ANIMAS RIVER PUMP STATION # 1,,IN,SW,E,36.72602000,-108.19067000,"003",2017/12/13,0.00000000,,0.00000000,,0.00000000,,SANTA FE AREA OFFICE,JAMES JONES,"-1"
"1517",NM3510224,FARMINGTON WATER SYSTEM,,L,FARMINGTON,SAN JUAN,SW,38000.00000000,24228667.00000000,"10224002",C,6993.00000000,ANIMAS RIVER PUMP STATION # 2,,IN,SW,P,36.78305000,-108.10279000,"003",2017/12/13,0.00000000,,0.00000000,,0.00000000,,SANTA FE AREA OFFICE,JAMES JONES,"-1"
"1518",NM3510224,FARMINGTON WATER SYSTEM,,L,FARMINGTON,SAN JUAN,SW,38000.00000000,24228667.00000000,"10224007",C,12004.00000000,SAN JUAN PUMP STATION,,IN,SW,E,36.70722500,-108.19896200,"003",2000/11/17,0.00000000,,0.00000000,,0.00000000,,SANTA FE AREA OFFICE,JAMES JONES,"0"
"1519",NM3502826,BUCKMAN REGIONAL WATER TREATMENT PLANT,,L,SANTA FE,SANTA FE,SW,0.00000000,4000000.00000000,"02826001",C,13108.00000000,BUCKMAN SURFACE WATER INTAKE,,IN,SW,P,35.83627000,-106.16196000,"003",2011/09/08,0.00000000,,0.00000000,,0.00000000,,SANTA FE AREA OFFICE,WAYNE JEFFS,"-1"
"1688",NM3513719,LA LUZ MDWCA,,L,LA LUZ,OTERO,SW,2500.00000000,537000.00000000,"13719001",C,2498.00000000,WELL #1,,WL,GW,P,32.97936100,-105.93738800,"003",2006/10/31,640.00000000,FT,6.00000000,IN,485.00000000,FT,LAS CRUCES AREA OFFICE,ANTONIO ROMERO,"-1"
"1689",NM3513719,LA LUZ MDWCA,,L,LA LUZ,OTERO,SW,2500.00000000,537000.00000000,"13719002",C,2499.00000000,WELL #2,,WL,GW,P,32.98125000,-105.93463800,"003",2006/10/31,640.00000000,FT,8.00000000,IN,502.00000000,FT,LAS CRUCES AREA OFFICE,ANTONIO ROMERO,"-1"
"1690",NM3513719,LA LUZ MDWCA,,L,LA LUZ,OTERO,SW,2500.00000000,537000.00000000,"13719009",C,10479.00000000,WELL #4,,WL,GW,P,32.84841600,-105.92994400,"003",2006/10/31,710.00000000,FT,8.00000000,IN,398.00000000,FT,LAS CRUCES AREA OFFICE,ANTONIO ROMERO,"-1"
"1691",NM3513719,LA LUZ MDWCA,,L,LA LUZ,OTERO,SW,2500.00000000,537000.00000000,"13719003",C,2500.00000000,WELL #3,,WL,GW,P,32.97988800,-105.93244400,"003",2006/10/31,900.00000000,FT,6.00000000,IN,532.00000000,FT,LAS CRUCES AREA OFFICE,ANTONIO ROMERO,"-1"
"1692",NM3513719,LA LUZ MDWCA,,L,LA LUZ,OTERO,SW,2500.00000000,537000.00000000,"13719004",C,7009.00000000,LA LUZ/FRESNAL INTAKE,,IN,SW,P,32.97958300,-105.93058300,"003",2006/10/31,0.00000000,,0.00000000,,0.00000000,,LAS CRUCES AREA OFFICE,ANTONIO ROMERO,"-1"
"1693",NM3513719,LA LUZ MDWCA,,L,LA LUZ,OTERO,SW,2500.00000000,537000.00000000,"13719010",C,10480.00000000,WELL #5 (LAKESIDE),ORIGINALLY LAKESIDE DE LA LUZ  WELL #1,WL,GW,P,32.97686100,-105.93069400,"003",2006/10/31,585.00000000,FT,7.00000000,IN,485.00000000,FT,LAS CRUCES AREA OFFICE,ANTONIO ROMERO,"0"
"1714",NM3501021,CHAMA WATER SYSTEM,,L,CHAMA,RIO ARRIBA,SW,1573.00000000,950000.00000000,"01021001",C,6986.00000000,RIVER INTAKE # 1,,IN,SW,P,36.91897200,-106.57133300,"003",2005/07/22,0.00000000,,0.00000000,,0.00000000,,SANTA FE AREA OFFICE,SF FRANK BACA,"-1"
"1715",NM3501021,CHAMA WATER SYSTEM,,L,CHAMA,RIO ARRIBA,SW,1573.00000000,950000.00000000,"01021006",C,8934.00000000,INFILTRATION GALLERY #1,,IG,GU,P,36.91897200,-106.57133300,"003",2005/07/22,0.00000000,,0.00000000,,0.00000000,,SANTA FE AREA OFFICE,SF FRANK BACA,"0"
"1716",NM3501021,CHAMA WATER SYSTEM,,L,CHAMA,RIO ARRIBA,SW,1573.00000000,950000.00000000,"01021003",C,7054.00000000,SPRING # 1,,SP,SW,P,36.92445600,-106.61475800,"003",,0.00000000,,0.00000000,,0.00000000,,SANTA FE AREA OFFICE,SF FRANK BACA,"0"
"1633",NM3593821,NAVAJO LAKE STATE PARK - SIMS MESA,,S,NAVAJO DAM,RIO ARRIBA,SW,110.00000000,200000.00000000,"93821001",NC,7042.00000000,NAVAJO RESERVOIR INTAKE,,IN,SW,P,36.83361100,-107.58638900,"003",2004/10/13,0.00000000,,0.00000000,,0.00000000,,SANTA FE AREA OFFICE,JAMES JONES,"-1"
"2031",NM3593221,HERON LAKE STATE PARK (SURFACE WATER),,S,RUTHERON,RIO ARRIBA,SW,150.00000000,100000.00000000,"93221001",NC,7038.00000000,HERON LAKE INTAKE,,IN,SW,P,36.66567000,-106.70422000,"003",2006/08/22,0.00000000,,0.00000000,,0.00000000,,SANTA FE AREA OFFICE,SF FRANK BACA,"-1"
"2043",NM3573725,BIG MESA WATER MDWCA,,L,CONCHAS DAM,SAN MIGUEL,SW,265.00000000,325000.00000000,"73725001",C,7028.00000000,INTAKE #1,CONCHAS LAKE  (SURFACE INTAKE),IN,SW,P,35.37750500,-104.21125500,"003",2010/12/21,0.00000000,,0.00000000,,0.00000000,,SANTA FE AREA OFFICE,GREG QUARTIERI,"-1"
"2068",NM3502221,RUTHERON MUTUAL WATER ASSOCIATION,,L,RUTHERON,RIO ARRIBA,GU,90.00000000,20000.00000000,"02221001",C,8942.00000000,INFILTRATION GALLERY #1,,IG,GU,P,36.69855000,-106.60841000,"003",2007/05/10,0.00000000,,0.00000000,,0.00000000,,SANTA FE AREA OFFICE,SF FRANK BACA,"-1"
"2080",NM3500624,LEE/HAMMOND WATER TREATMENT PLANT CO-OP,,P,BLOOMFIELD,SAN JUAN,SW,0.00000000,500000.00000000,"00624004",C,12738.00000000,RAW WATER RESERVOIR,,RS,SW,P,36.69237000,-107.99986000,"003",2017/05/11,0.00000000,,0.00000000,,0.00000000,,SANTA FE AREA OFFICE,JAMES JONES,"-1"
"2081",NM3500624,LEE/HAMMOND WATER TREATMENT PLANT CO-OP,,P,BLOOMFIELD,SAN JUAN,SW,0.00000000,500000.00000000,"00624001",C,6985.00000000,RIVER INTAKE PUMP STATION,,IN,SW,P,36.69910000,-107.88815000,"003",2017/05/11,0.00000000,,0.00000000,,0.00000000,,SANTA FE AREA OFFICE,JAMES JONES,"-1"
"2132",NM3593225,CONCHAS DAM STATE PARK NORTHSIDE,,S,CONCHAS DAM,SAN MIGUEL,SW,450.00000000,75000.00000000,"93225001",NC,7039.00000000,INTAKE #1,CONCHAS LAKE SURFACE INTAKE,IN,SW,P,35.42757200,-104.19491300,"003",2014/03/20,0.00000000,,0.00000000,,0.00000000,,SANTA FE AREA OFFICE,GREG QUARTIERI,"-1"
"2471",NM3503521,VALLECITOS MDWCA,,L,VALLECITOS,RIO ARRIBA,SW,92.00000000,10000.00000000,"03521005",C,14357.00000000,RIVER INTAKE,,IN,SW,P,36.49301400,-106.12062300,"003",2019/08/22,0.00000000,,0.00000000,,0.00000000,,SANTA FE AREA OFFICE,SF FRANK BACA,"-1"
"2472",NM3503521,VALLECITOS MDWCA,,L,VALLECITOS,RIO ARRIBA,SW,92.00000000,10000.00000000,"03521001",C,8946.00000000,INFILTRATION GALLERY #1,,IG,SW,P,36.49530500,-106.11291600,"003",2010/08/04,0.00000000,,0.00000000,,0.00000000,,SANTA FE AREA OFFICE,SF FRANK BACA,"0"
"2588",NM3510701,ALBUQUERQUE WATER SYSTEM,,L,ALBUQUERQUE,BERNALILLO,SW,659736.00000000,92894000.00000000,"10701022",C,2238.00000000,DURANES WELL # 4,,WL,GW,P,35.10775000,-106.68792900,"003",2002/02/05,950.00000000,FT,0.00000000,,51.00000000,FT,SANTA FE AREA OFFICE,WAYNE JEFFS,"0"
"2589",NM3510701,ALBUQUERQUE WATER SYSTEM,,L,ALBUQUERQUE,BERNALILLO,SW,659736.00000000,92894000.00000000,"10701023",C,2239.00000000,DURANES WELL # 5,,WL,GW,P,35.10162800,-106.68838700,"003",2002/02/05,950.00000000,FT,0.00000000,,31.00000000,FT,SANTA FE AREA OFFICE,WAYNE JEFFS,"0"
"2590",NM3510701,ALBUQUERQUE WATER SYSTEM,,L,ALBUQUERQUE,BERNALILLO,SW,659736.00000000,92894000.00000000,"10701024",C,2240.00000000,DURANES WELL # 6,,WL,GW,P,35.11462700,-106.67544000,"003",2002/02/05,500.00000000,FT,0.00000000,,45.00000000,FT,SANTA FE AREA OFFICE,WAYNE JEFFS,"0"
"2591",NM3510701,ALBUQUERQUE WATER SYSTEM,,L,ALBUQUERQUE,BERNALILLO,SW,659736.00000000,92894000.00000000,"10701027",C,2243.00000000,GRIEGOS WELL # 2,,WL,GW,P,35.13250000,-106.66861100,"003",2002/02/05,820.00000000,FT,0.00000000,,36.00000000,FT,SANTA FE AREA OFFICE,WAYNE JEFFS,"0"
"2592",NM3510701,ALBUQUERQUE WATER SYSTEM,,L,ALBUQUERQUE,BERNALILLO,SW,659736.00000000,92894000.00000000,"10701030",C,2246.00000000,GRIEGOS WELL # 5,,WL,GW,P,35.13448900,-106.65752600,"003",2002/02/05,804.00000000,FT,0.00000000,,0.00000000,,SANTA FE AREA OFFICE,WAYNE JEFFS,"0"
"2593",NM3510701,ALBUQUERQUE WATER SYSTEM,,L,ALBUQUERQUE,BERNALILLO,SW,659736.00000000,92894000.00000000,"10701031",C,2247.00000000,LEAVITT WELL # 1,,WL,GW,P,35.05305200,-106.73041000,"003",2002/02/05,1229.00000000,FT,0.00000000,,207.00000000,FT,SANTA FE AREA OFFICE,WAYNE JEFFS,"0"
"2594",NM3510701,ALBUQUERQUE WATER SYSTEM,,L,ALBUQUERQUE,BERNALILLO,SW,659736.00000000,92894000.00000000,"10701032",C,2248.00000000,LEAVITT WELL # 2,,WL,GW,P,35.04694900,-106.72905200,"003",2002/02/05,1133.00000000,FT,0.00000000,,163.00000000,FT,SANTA FE AREA OFFICE,WAYNE JEFFS,"0"
"2595",NM3510701,ALBUQUERQUE WATER SYSTEM,,L,ALBUQUERQUE,BERNALILLO,SW,659736.00000000,92894000.00000000,"10701033",C,2249.00000000,LEAVITT WELL # 3,,WL,GW,P,35.04108600,-106.73277500,"003",2002/02/05,1520.00000000,FT,0.00000000,,241.00000000,FT,SANTA FE AREA OFFICE,WAYNE JEFFS,"0"
"2596",NM3510701,ALBUQUERQUE WATER SYSTEM,,L,ALBUQUERQUE,BERNALILLO,SW,659736.00000000,92894000.00000000,"10701055",C,2271.00000000,PONDEROSA WELL # 3,,WL,GW,P,35.13919000,-106.53836700,"003",2002/02/05,1602.00000000,FT,0.00000000,,669.00000000,FT,SANTA FE AREA OFFICE,WAYNE JEFFS,"0"
"2597",NM3510701,ALBUQUERQUE WATER SYSTEM,,L,ALBUQUERQUE,BERNALILLO,SW,659736.00000000,92894000.00000000,"10701056",C,2272.00000000,PONDEROSA WELL # 4,,WL,GW,P,35.14326000,-106.53047100,"003",2002/02/05,1549.00000000,FT,0.00000000,,831.00000000,FT,SANTA FE AREA OFFICE,WAYNE JEFFS,"0"
"2598",NM3510701,ALBUQUERQUE WATER SYSTEM,,L,ALBUQUERQUE,BERNALILLO,SW,659736.00000000,92894000.00000000,"10701057",C,2273.00000000,PONDEROSA WELL # 5,,WL,GW,E,35.15445300,-106.53118800,"003",2002/02/05,1626.00000000,FT,0.00000000,,745.00000000,FT,SANTA FE AREA OFFICE,WAYNE JEFFS,"0"
"2599",NM3510701,ALBUQUERQUE WATER SYSTEM,,L,ALBUQUERQUE,BERNALILLO,SW,659736.00000000,92894000.00000000,"10701058",C,2274.00000000,PONDEROSA WELL # 6,,WL,GW,P,35.14759000,-106.53993900,"003",2002/02/05,1675.00000000,FT,0.00000000,,677.00000000,FT,SANTA FE AREA OFFICE,WAYNE JEFFS,"0"
"2600",NM3510701,ALBUQUERQUE WATER SYSTEM,,L,ALBUQUERQUE,BERNALILLO,SW,659736.00000000,92894000.00000000,"10701066",C,2282.00000000,SAN JOSE WELL # 4,,WL,GW,P,35.04885700,-106.64525000,"003",2002/02/05,996.00000000,FT,0.00000000,,0.00000000,,SANTA FE AREA OFFICE,WAYNE JEFFS,"0"
"2601",NM3510701,ALBUQUERQUE WATER SYSTEM,,L,ALBUQUERQUE,BERNALILLO,SW,659736.00000000,92894000.00000000,"10701109",C,2313.00000000,BURTON WELL # 4,,WL,GW,P,35.06198200,-106.60987900,"003",2002/02/05,1276.00000000,FT,0.00000000,,433.00000000,FT,SANTA FE AREA OFFICE,WAYNE JEFFS,"0"
"2602",NM3510701,ALBUQUERQUE WATER SYSTEM,,L,ALBUQUERQUE,BERNALILLO,SW,659736.00000000,92894000.00000000,"10701087",C,2302.00000000,WEBSTER WELL # 1,,WL,GW,E,35.17532200,-106.55503100,"003",2002/02/05,0.00000000,,0.00000000,,530.00000000,FT,SANTA FE AREA OFFICE,WAYNE JEFFS,"0"
"2603",NM3510701,ALBUQUERQUE WATER SYSTEM,,L,ALBUQUERQUE,BERNALILLO,SW,659736.00000000,92894000.00000000,"10701016",C,2233.00000000,COLLEGE WELL # 2,,WL,GW,P,35.11282300,-106.73391300,"003",2002/02/05,1575.00000000,FT,0.00000000,,328.00000000,FT,SANTA FE AREA OFFICE,WAYNE JEFFS,"0"
"2604",NM3510701,ALBUQUERQUE WATER SYSTEM,,L,ALBUQUERQUE,BERNALILLO,SW,659736.00000000,92894000.00000000,"10701187",C,12895.00000000,CORRALES WELL #03,,WL,GW,P,0.00000000,0.00000000,"001",2002/02/05,0.00000000,,0.00000000,,0.00000000,,SANTA FE AREA OFFICE,WAYNE JEFFS,"0"
"2605",NM3510701,ALBUQUERQUE WATER SYSTEM,,L,ALBUQUERQUE,BERNALILLO,SW,659736.00000000,92894000.00000000,"10701091",C,2306.00000000,WEST MESA WELL # 3,,WL,GW,P,35.07893400,-106.73236400,"003",2002/02/05,0.00000000,,0.00000000,,257.00000000,FT,SANTA FE AREA OFFICE,WAYNE JEFFS,"0"
"2895",NM3520024,NORTHSTAR MDWCA,,L,AZTEC,SAN JUAN,SW,3602.00000000,994000.00000000,"20024001",C,7014.00000000,ANIMAS RIVER INTAKE #1,ANIMAS RIVER INTAKE,IN,SW,P,36.90089800,-107.91779000,"003",2017/11/07,0.00000000,,0.00000000,,0.00000000,,SANTA FE AREA OFFICE,JAMES JONES,"-1"
"2896",NM3520024,NORTHSTAR MDWCA,,L,AZTEC,SAN JUAN,SW,3602.00000000,994000.00000000,"20024015",C,12744.00000000,RESERVOIR #3 (RAW),,RS,SW,P,36.89268000,-107.91409000,"003",2017/11/07,0.00000000,,0.00000000,,0.00000000,,SANTA FE AREA OFFICE,JAMES JONES,"-1"
"2897",NM3520024,NORTHSTAR MDWCA,,L,AZTEC,SAN JUAN,SW,3602.00000000,994000.00000000,"20024003",C,9576.00000000,WELL #1,,WL,GW,E,36.90083300,-107.91805600,"003",2003/02/27,34.00000000,FT,11.00000000,IN,12.00000000,FT,SANTA FE AREA OFFICE,JAMES JONES,"0"
"2497",NM3567424,ENTERPRISE PRODUCTS COMPANY CHACO PLANT,EL PASO FIELD SERVICES,P,BLOOMFIELD,SAN JUAN,SW,28.00000000,84000.00000000,"67424001",NTNC,7026.00000000,BLANCO RES #2 INTAKE,,IN,SW,P,36.71872300,-107.92253900,"003",2020/02/27,0.00000000,,0.00000000,,0.00000000,,SANTA FE AREA OFFICE,JAMES JONES,"-1"
"2606",NM3510701,ALBUQUERQUE WATER SYSTEM,,L,ALBUQUERQUE,BERNALILLO,SW,659736.00000000,92894000.00000000,"10701089",C,2304.00000000,WEST MESA WELL # 1,,WL,GW,E,35.07454300,-106.73882600,"003",2002/02/05,0.00000000,,0.00000000,,303.00000000,FT,SANTA FE AREA OFFICE,WAYNE JEFFS,"0"
"2607",NM3510701,ALBUQUERQUE WATER SYSTEM,,L,ALBUQUERQUE,BERNALILLO,SW,659736.00000000,92894000.00000000,"10701085",C,2300.00000000,WALKER WELL # 1,,WL,GW,E,35.17407400,-106.52846400,"003",2002/02/05,0.00000000,,0.00000000,,813.00000000,FT,SANTA FE AREA OFFICE,WAYNE JEFFS,"0"
"2608",NM3510701,ALBUQUERQUE WATER SYSTEM,,L,ALBUQUERQUE,BERNALILLO,SW,659736.00000000,92894000.00000000,"10701018",C,2234.00000000,DON WELL # 1,,WL,GW,P,35.06750000,-106.74111100,"003",2002/02/05,1440.00000000,FT,0.00000000,,0.00000000,,SANTA FE AREA OFFICE,WAYNE JEFFS,"0"
"2609",NM3510701,ALBUQUERQUE WATER SYSTEM,,L,ALBUQUERQUE,BERNALILLO,SW,659736.00000000,92894000.00000000,"10701007",C,2224.00000000,CANDELARIA WELL # 1,,WL,GW,P,35.11808300,-106.63732300,"003",2002/02/05,553.00000000,FT,0.00000000,,0.00000000,,SANTA FE AREA OFFICE,WAYNE JEFFS,"0"
"2610",NM3510701,ALBUQUERQUE WATER SYSTEM,,L,ALBUQUERQUE,BERNALILLO,SW,659736.00000000,92894000.00000000,"10701070",C,2285.00000000,THOMAS WELL # 2,,WL,GW,P,35.13032200,-106.54374600,"003",2002/02/05,0.00000000,,0.00000000,,631.00000000,FT,SANTA FE AREA OFFICE,WAYNE JEFFS,"0"
"2611",NM3510701,ALBUQUERQUE WATER SYSTEM,,L,ALBUQUERQUE,BERNALILLO,SW,659736.00000000,92894000.00000000,"10701193",C,12901.00000000,CORRALES WELL #05,,WL,GW,P,35.19305800,-106.72902600,"003",2002/02/05,1305.00000000,FT,0.00000000,,504.00000000,FT,SANTA FE AREA OFFICE,WAYNE JEFFS,"0"
"2612",NM3510701,ALBUQUERQUE WATER SYSTEM,,L,ALBUQUERQUE,BERNALILLO,SW,659736.00000000,92894000.00000000,"10701008",C,2225.00000000,CANDELARIA WELL # 2,,WL,GW,P,35.11958200,-106.63717800,"003",2002/02/05,288.00000000,FT,0.00000000,,0.00000000,,SANTA FE AREA OFFICE,WAYNE JEFFS,"0"
"2613",NM3510701,ALBUQUERQUE WATER SYSTEM,,L,ALBUQUERQUE,BERNALILLO,SW,659736.00000000,92894000.00000000,"10701065",C,2281.00000000,SAN JOSE WELL # 3,,WL,GW,P,35.06196700,-106.65090300,"003",2002/02/05,0.00000000,,0.00000000,,73.00000000,FT,SANTA FE AREA OFFICE,WAYNE JEFFS,"0"
"2614",NM3510701,ALBUQUERQUE WATER SYSTEM,,L,ALBUQUERQUE,BERNALILLO,SW,659736.00000000,92894000.00000000,"10701184",C,12891.00000000,CORRALES WELL #02,,WL,GW,P,35.20489500,-106.70398200,"003",2002/02/05,0.00000000,,0.00000000,,0.00000000,,SANTA FE AREA OFFICE,WAYNE JEFFS,"0"
"2615",NM3510701,ALBUQUERQUE WATER SYSTEM,,L,ALBUQUERQUE,BERNALILLO,SW,659736.00000000,92894000.00000000,"10701009",C,2226.00000000,CANDELARIA WELL # 3,,WL,GW,P,35.11867400,-106.63477400,"003",2002/02/05,310.00000000,FT,0.00000000,,0.00000000,,SANTA FE AREA OFFICE,WAYNE JEFFS,"0"
"2616",NM3510701,ALBUQUERQUE WATER SYSTEM,,L,ALBUQUERQUE,BERNALILLO,SW,659736.00000000,92894000.00000000,"10701063",C,2279.00000000,SAN JOSE WELL # 1,,WL,GW,P,35.05459700,-106.64734000,"003",2002/02/05,0.00000000,,0.00000000,,44.00000000,FT,SANTA FE AREA OFFICE,WAYNE JEFFS,"0"
"2617",NM3510701,ALBUQUERQUE WATER SYSTEM,,L,ALBUQUERQUE,BERNALILLO,SW,659736.00000000,92894000.00000000,"10701179",C,12628.00000000,SJC CLEAR WELLS,,CW,SW,P,35.14353800,-106.61203800,"003",2009/02/11,0.00000000,,0.00000000,,0.00000000,,SANTA FE AREA OFFICE,WAYNE JEFFS,"0"
"2618",NM3510701,ALBUQUERQUE WATER SYSTEM,,L,ALBUQUERQUE,BERNALILLO,SW,659736.00000000,92894000.00000000,"10701088",C,2303.00000000,WEBSTER WELL # 2,,WL,GW,E,35.17017200,-106.56012700,"003",2002/02/05,0.00000000,,0.00000000,,488.00000000,FT,SANTA FE AREA OFFICE,WAYNE JEFFS,"0"
"2619",NM3510701,ALBUQUERQUE WATER SYSTEM,,L,ALBUQUERQUE,BERNALILLO,SW,659736.00000000,92894000.00000000,"10701092",C,2307.00000000,WEST MESA WELL # 4,,WL,GW,E,35.08003600,-106.72281100,"003",2002/02/05,0.00000000,,0.00000000,,225.00000000,FT,SANTA FE AREA OFFICE,WAYNE JEFFS,"0"
"2620",NM3510701,ALBUQUERQUE WATER SYSTEM,,L,ALBUQUERQUE,BERNALILLO,SW,659736.00000000,92894000.00000000,"10701086",C,2301.00000000,WALKER WELL # 2,,WL,GW,E,35.17322700,-106.53725500,"003",2002/02/05,0.00000000,,0.00000000,,698.00000000,FT,SANTA FE AREA OFFICE,WAYNE JEFFS,"0"
"2621",NM3510701,ALBUQUERQUE WATER SYSTEM,,L,ALBUQUERQUE,BERNALILLO,SW,659736.00000000,92894000.00000000,"10701010",C,2227.00000000,CANDELARIA WELL # 4,,WL,GW,P,35.11823200,-106.63957300,"003",2002/02/05,296.00000000,FT,0.00000000,,0.00000000,,SANTA FE AREA OFFICE,WAYNE JEFFS,"0"
"2622",NM3510701,ALBUQUERQUE WATER SYSTEM,,L,ALBUQUERQUE,BERNALILLO,SW,659736.00000000,92894000.00000000,"10701015",C,2232.00000000,COLLEGE WELL # 1,,WL,GW,P,35.11143400,-106.74308300,"003",2002/02/05,1662.00000000,FT,0.00000000,,436.00000000,FT,SANTA FE AREA OFFICE,WAYNE JEFFS,"0"
"2623",NM3510701,ALBUQUERQUE WATER SYSTEM,,L,ALBUQUERQUE,BERNALILLO,SW,659736.00000000,92894000.00000000,"10701064",C,2280.00000000,SAN JOSE WELL # 2,,WL,GW,P,35.06097900,-106.64210600,"003",2002/02/05,0.00000000,,0.00000000,,122.00000000,FT,SANTA FE AREA OFFICE,WAYNE JEFFS,"0"
"2624",NM3510701,ALBUQUERQUE WATER SYSTEM,,L,ALBUQUERQUE,BERNALILLO,SW,659736.00000000,92894000.00000000,"10701090",C,2305.00000000,WEST MESA WELL # 2,,WL,GW,P,35.08560200,-106.73266900,"003",2002/02/05,0.00000000,,0.00000000,,240.00000000,FT,SANTA FE AREA OFFICE,WAYNE JEFFS,"0"
"2625",NM3510701,ALBUQUERQUE WATER SYSTEM,,L,ALBUQUERQUE,BERNALILLO,SW,659736.00000000,92894000.00000000,"10701084",C,2299.00000000,VOLCANO CLIFFS WELL # 3,,WL,GW,P,35.16672300,-106.72968600,"003",2002/02/05,0.00000000,,0.00000000,,473.00000000,FT,SANTA FE AREA OFFICE,WAYNE JEFFS,"0"
"2641",NM3533223,PONDEROSA MDWCA,,L,PONDEROSA,SANDOVAL,GU,350.00000000,96000.00000000,"33223004",C,7808.00000000,INFILTRATION GALLERY #2,,IG,GU,P,35.70425600,-106.62216300,"003",2001/05/07,0.00000000,,0.00000000,,0.00000000,,SANTA FE AREA OFFICE,SF FRANK BACA,"-1"
"2642",NM3533223,PONDEROSA MDWCA,,L,PONDEROSA,SANDOVAL,GU,350.00000000,96000.00000000,"33223001",C,7236.00000000,INFILTRATION GALLERY #1,,IG,SW,P,35.70448200,-106.62235400,"003",,0.00000000,,0.00000000,,0.00000000,,SANTA FE AREA OFFICE,SF FRANK BACA,"0"
"2940",NM3510324,LOWER VALLEY WATER USERS ASSOCIATION,,L,KIRTLAND,SAN JUAN,SW,8647.00000000,2000000.00000000,"10324011",C,12872.00000000,SAN JUAN RIVER INTAKE,SAN JUAN RIVER WATER,IN,SW,P,36.72358000,-108.32399000,"003",2018/05/09,0.00000000,,0.00000000,,0.00000000,,SANTA FE AREA OFFICE,JAMES JONES,"-1"
"2941",NM3510324,LOWER VALLEY WATER USERS ASSOCIATION,,L,KIRTLAND,SAN JUAN,SW,8647.00000000,2000000.00000000,"10324010",C,12871.00000000,RESERVOIR #2 (RAW),,RS,SW,P,36.73833300,-108.31527700,"003",2009/08/31,0.00000000,,0.00000000,,0.00000000,,SANTA FE AREA OFFICE,JAMES JONES,"-1"
"3205",NM3513114,RUIDOSO WATER SYSTEM,,L,RUIDOSO,LINCOLN,SW,19076.00000000,17158000.00000000,"13114017",C,2464.00000000,EAGLE CREEK #4,,WL,GW,P,33.39416700,-105.71694400,"003",2002/07/25,599.00000000,FT,0.00000000,,0.00000000,,LAS CRUCES AREA OFFICE,JOHN PIJAWKA,"0"
"3206",NM3513114,RUIDOSO WATER SYSTEM,,L,RUIDOSO,LINCOLN,SW,19076.00000000,17158000.00000000,"13114018",C,2465.00000000,ALTO WELL # 2,,WL,GW,P,33.39497200,-105.66866600,"003",2000/10/01,695.00000000,FT,8.00000000,IN,21.00000000,FT,LAS CRUCES AREA OFFICE,JOHN PIJAWKA,"0"
"3207",NM3513114,RUIDOSO WATER SYSTEM,,L,RUIDOSO,LINCOLN,SW,19076.00000000,17158000.00000000,"13114021",C,2467.00000000,APPLE ORCHARD WELL,,WL,GW,P,33.40119400,-105.69752800,"003",,540.00000000,FT,6.00000000,IN,30.00000000,FT,LAS CRUCES AREA OFFICE,JOHN PIJAWKA,"0"
"3208",NM3513114,RUIDOSO WATER SYSTEM,,L,RUIDOSO,LINCOLN,SW,19076.00000000,17158000.00000000,"13114022",C,2468.00000000,FAULT WELL,,WL,GW,P,33.39922200,-105.70038900,"003",,800.00000000,FT,6.00000000,IN,30.00000000,FT,LAS CRUCES AREA OFFICE,JOHN PIJAWKA,"0"
"3209",NM3513114,RUIDOSO WATER SYSTEM,,L,RUIDOSO,LINCOLN,SW,19076.00000000,17158000.00000000,"13114023",C,2469.00000000,RIVER WELL,,WL,GW,P,33.39822200,-105.68197200,"003",2000/10/20,535.00000000,FT,6.00000000,IN,20.00000000,FT,LAS CRUCES AREA OFFICE,JOHN PIJAWKA,"0"
"3210",NM3513114,RUIDOSO WATER SYSTEM,,L,RUIDOSO,LINCOLN,SW,19076.00000000,17158000.00000000,"13114024",C,12144.00000000,EAGLE CREEK DIVERSION,,IN,SW,P,33.39311100,-105.71838800,"003",2000/10/01,0.00000000,,0.00000000,,0.00000000,,LAS CRUCES AREA OFFICE,JOHN PIJAWKA,"0"
"3211",NM3513114,RUIDOSO WATER SYSTEM,,L,RUIDOSO,LINCOLN,SW,19076.00000000,17158000.00000000,"13114009",C,7002.00000000,GRINDSTONE DIVERSION (UPPER CANYON),,IN,SW,P,33.33700000,-105.72144400,"003",2000/10/01,0.00000000,,0.00000000,,0.00000000,,LAS CRUCES AREA OFFICE,JOHN PIJAWKA,"0"
"3212",NM3513114,RUIDOSO WATER SYSTEM,,L,RUIDOSO,LINCOLN,SW,19076.00000000,17158000.00000000,"13114019",C,7043.00000000,ALTO RESEVOIR,,RS,SW,P,33.39700000,-105.67338800,"003",2000/10/01,0.00000000,,0.00000000,,0.00000000,,LAS CRUCES AREA OFFICE,JOHN PIJAWKA,"0"
"2942",NM3510324,LOWER VALLEY WATER USERS ASSOCIATION,,L,KIRTLAND,SAN JUAN,SW,8647.00000000,2000000.00000000,"10324002",C,6995.00000000,FARMERS DITCH,,IN,SW,P,36.73158600,-108.31425000,"003",2018/05/09,0.00000000,,0.00000000,,0.00000000,,SANTA FE AREA OFFICE,JAMES JONES,"-1"
"2943",NM3510324,LOWER VALLEY WATER USERS ASSOCIATION,,L,KIRTLAND,SAN JUAN,SW,8647.00000000,2000000.00000000,"10324009",C,12748.00000000,RESERVOIR #1 (RAW),,RS,SW,P,36.73666600,-108.31527700,"003",2009/08/31,0.00000000,,0.00000000,,0.00000000,,SANTA FE AREA OFFICE,JAMES JONES,"-1"
"2944",NM3510324,LOWER VALLEY WATER USERS ASSOCIATION,,L,KIRTLAND,SAN JUAN,SW,8647.00000000,2000000.00000000,"10324001",C,6996.00000000,WESTLAND PARK INTAKE,,IN,SW,P,36.73139000,-108.24924200,"003",2006/04/26,0.00000000,,0.00000000,,0.00000000,,SANTA FE AREA OFFICE,JAMES JONES,"0"
"3240",NM3500725,TRES LAGUNAS HOME OWNERS ASSOCIATION,,P,PECOS,SAN MIGUEL,GU,52.00000000,11250.00000000,"00725002",NC,1824.00000000,HAND DUG WELL (MIDDLE WELL),,WL,GU,P,35.72283300,-105.67902700,"003",2011/09/23,10.00000000,FT,0.00000000,,7.00000000,FT,SANTA FE AREA OFFICE,SF FRANK BACA,"-1"
"3241",NM3500725,TRES LAGUNAS HOME OWNERS ASSOCIATION,,P,PECOS,SAN MIGUEL,GU,52.00000000,11250.00000000,"00725004",NC,1825.00000000,NORTH WELL,,WL,GU,P,35.72311100,-105.67880500,"003",2011/09/23,120.00000000,FT,5.00000000,IN,21.00000000,FT,SANTA FE AREA OFFICE,SF FRANK BACA,"-1"
"3019",NM3590619,CAMP WEHINAHPAY,,P,SACRAMENTO,OTERO,SW,139.00000000,43000.00000000,"90619002",NC,7189.00000000,SPRING #1,,SP,SW,P,32.76213800,-105.68928300,"003",,0.00000000,,0.00000000,,0.00000000,,LAS CRUCES AREA OFFICE,ANTONIO ROMERO,"-1"
"3020",NM3590619,CAMP WEHINAHPAY,,P,SACRAMENTO,OTERO,SW,139.00000000,43000.00000000,"90619001",NC,4339.00000000,WELL #1,,WL,GW,P,32.76331400,-105.68980400,"003",,180.00000000,FT,0.00000000,,0.00000000,,LAS CRUCES AREA OFFICE,ANTONIO ROMERO,"0"
"3189",NM3513114,RUIDOSO WATER SYSTEM,,L,RUIDOSO,LINCOLN,SW,19076.00000000,17158000.00000000,"13114003",C,2454.00000000,CHEROKEE WELL (H-272),,WL,GW,P,33.31211100,-105.63625000,"003",2000/10/01,375.00000000,FT,8.00000000,IN,135.00000000,FT,LAS CRUCES AREA OFFICE,JOHN PIJAWKA,"-1"
"3190",NM3513114,RUIDOSO WATER SYSTEM,,L,RUIDOSO,LINCOLN,SW,19076.00000000,17158000.00000000,"13114007",C,2458.00000000,NORTH FORK WELL #4 [H-1982],,WL,GW,P,33.40072200,-105.73722200,"003",2000/10/01,1000.00000000,FT,12.00000000,IN,450.00000000,FT,LAS CRUCES AREA OFFICE,JOHN PIJAWKA,"-1"
"3191",NM3513114,RUIDOSO WATER SYSTEM,,L,RUIDOSO,LINCOLN,SW,19076.00000000,17158000.00000000,"13114010",C,2460.00000000,HOLLYWOOD WELL (H-272-S),,WL,GW,P,33.32741600,-105.62902700,"003",2000/10/01,254.00000000,FT,10.00000000,IN,87.00000000,FT,LAS CRUCES AREA OFFICE,JOHN PIJAWKA,"-1"
"3192",NM3513114,RUIDOSO WATER SYSTEM,,L,RUIDOSO,LINCOLN,SW,19076.00000000,17158000.00000000,"13114016",C,2463.00000000,GREEN WELL (WOODPECKER),WOODPECKER,WL,GW,P,33.39422200,-105.71697200,"003",2000/10/01,2035.00000000,FT,10.00000000,IN,23.00000000,FT,LAS CRUCES AREA OFFICE,JOHN PIJAWKA,"-1"
"3193",NM3513114,RUIDOSO WATER SYSTEM,,L,RUIDOSO,LINCOLN,SW,19076.00000000,17158000.00000000,"13114020",C,2466.00000000,ALTO WELL # 1,,WL,GW,P,33.39505500,-105.67616600,"003",2000/10/01,1200.00000000,FT,18.00000000,IN,35.00000000,FT,LAS CRUCES AREA OFFICE,JOHN PIJAWKA,"-1"
"3194",NM3513114,RUIDOSO WATER SYSTEM,,L,RUIDOSO,LINCOLN,SW,19076.00000000,17158000.00000000,"13114060",C,12142.00000000,HIGH SCHOOL WELL,,WL,GW,P,33.34769400,-105.64438800,"003",2009/08/17,500.00000000,FT,12.00000000,IN,53.00000000,FT,LAS CRUCES AREA OFFICE,JOHN PIJAWKA,"-1"
"3195",NM3513114,RUIDOSO WATER SYSTEM,,L,RUIDOSO,LINCOLN,SW,19076.00000000,17158000.00000000,"13114025",C,7044.00000000,GRINDSTONE RESERVOIR,,RS,SW,P,33.32283300,-105.68475000,"003",2000/10/01,0.00000000,,0.00000000,,0.00000000,,LAS CRUCES AREA OFFICE,JOHN PIJAWKA,"-1"
"3196",NM3513114,RUIDOSO WATER SYSTEM,,L,RUIDOSO,LINCOLN,SW,19076.00000000,17158000.00000000,"13114063",C,12664.00000000,ALTO RAW WATER INTAKE (TOCA) (LT2),,IN,SW,P,33.39333300,-105.67416600,"003",2009/11/06,0.00000000,,0.00000000,,0.00000000,,LAS CRUCES AREA OFFICE,JOHN PIJAWKA,"-1"
"3197",NM3513114,RUIDOSO WATER SYSTEM,,L,RUIDOSO,LINCOLN,SW,19076.00000000,17158000.00000000,"13114065",C,13077.00000000,GRINDSTONE RAW WATER INTAKE (TOCA) (LT2),,IN,SW,P,33.32213800,-105.68208300,"003",2006/05/05,0.00000000,,0.00000000,,0.00000000,,LAS CRUCES AREA OFFICE,JOHN PIJAWKA,"-1"
"3198",NM3513114,RUIDOSO WATER SYSTEM,,L,RUIDOSO,LINCOLN,SW,19076.00000000,17158000.00000000,"13114002",C,2453.00000000,BOG CANYON WELL [H-272-S5],,WL,GW,P,33.35341600,-105.65220800,"003",,300.00000000,FT,0.00000000,,46.00000000,FT,LAS CRUCES AREA OFFICE,JOHN PIJAWKA,"0"
"3199",NM3513114,RUIDOSO WATER SYSTEM,,L,RUIDOSO,LINCOLN,SW,19076.00000000,17158000.00000000,"13114004",C,2455.00000000,NORTH FORK WELL #1 [H-1979],,WL,GW,P,33.39497200,-105.71386100,"003",2000/10/01,785.00000000,FT,12.00000000,IN,142.00000000,FT,LAS CRUCES AREA OFFICE,JOHN PIJAWKA,"0"
"3200",NM3513114,RUIDOSO WATER SYSTEM,,L,RUIDOSO,LINCOLN,SW,19076.00000000,17158000.00000000,"13114005",C,2456.00000000,EAGLE CREEK #2 [H-1980],,WL,GW,P,33.40371600,-105.73835000,"003",,800.00000000,FT,0.00000000,,55.00000000,FT,LAS CRUCES AREA OFFICE,JOHN PIJAWKA,"0"
"3201",NM3513114,RUIDOSO WATER SYSTEM,,L,RUIDOSO,LINCOLN,SW,19076.00000000,17158000.00000000,"13114006",C,2457.00000000,NORTH FORK WELL #3 [H-1981],,WL,GW,P,33.40197200,-105.73686100,"003",2000/10/01,796.00000000,FT,12.00000000,IN,533.00000000,FT,LAS CRUCES AREA OFFICE,JOHN PIJAWKA,"0"
"3202",NM3513114,RUIDOSO WATER SYSTEM,,L,RUIDOSO,LINCOLN,SW,19076.00000000,17158000.00000000,"13114008",C,2459.00000000,GAVILAN TANK WELL [H-272-S4],,WL,GW,P,33.37405200,-105.64576600,"003",,250.00000000,FT,0.00000000,,75.00000000,FT,LAS CRUCES AREA OFFICE,JOHN PIJAWKA,"0"
"3203",NM3513114,RUIDOSO WATER SYSTEM,,L,RUIDOSO,LINCOLN,SW,19076.00000000,17158000.00000000,"13114012",C,2461.00000000,PLANT # 2 WELL [H-272-S3],,WL,GW,P,33.37970900,-105.64546000,"003",,510.00000000,FT,0.00000000,,86.00000000,FT,LAS CRUCES AREA OFFICE,JOHN PIJAWKA,"0"
"3204",NM3513114,RUIDOSO WATER SYSTEM,,L,RUIDOSO,LINCOLN,SW,19076.00000000,17158000.00000000,"13114015",C,2462.00000000,BROWN WELL,,WL,GW,P,33.39494400,-105.70838800,"003",2000/10/01,900.00000000,FT,12.00000000,IN,48.80000000,FT,LAS CRUCES AREA OFFICE,JOHN PIJAWKA,"0"
"2498",NM3567424,ENTERPRISE PRODUCTS COMPANY CHACO PLANT,EL PASO FIELD SERVICES,P,BLOOMFIELD,SAN JUAN,SW,28.00000000,84000.00000000,"67424008",NTNC,14432.00000000,WELL #10,,WL,GW,P,36.58215000,-108.05437000,"003",2020/02/27,0.00000000,,0.00000000,,0.00000000,,SANTA FE AREA OFFICE,JAMES JONES,"0"
"2499",NM3567424,ENTERPRISE PRODUCTS COMPANY CHACO PLANT,EL PASO FIELD SERVICES,P,BLOOMFIELD,SAN JUAN,SW,28.00000000,84000.00000000,"67424007",NTNC,14431.00000000,WELL #9,,WL,GW,P,36.57803000,-108.06386000,"003",2020/02/27,0.00000000,,0.00000000,,0.00000000,,SANTA FE AREA OFFICE,JAMES JONES,"0"
"2500",NM3567424,ENTERPRISE PRODUCTS COMPANY CHACO PLANT,EL PASO FIELD SERVICES,P,BLOOMFIELD,SAN JUAN,SW,28.00000000,84000.00000000,"67424005",NTNC,14429.00000000,WELL #7,,WL,GW,P,36.57058000,-108.07134000,"003",2020/02/27,0.00000000,,0.00000000,,0.00000000,,SANTA FE AREA OFFICE,JAMES JONES,"0"
"2501",NM3567424,ENTERPRISE PRODUCTS COMPANY CHACO PLANT,EL PASO FIELD SERVICES,P,BLOOMFIELD,SAN JUAN,SW,28.00000000,84000.00000000,"67424006",NTNC,14430.00000000,WELL #8,,WL,GW,P,36.57489000,-108.07162000,"003",2020/02/27,0.00000000,,0.00000000,,0.00000000,,SANTA FE AREA OFFICE,JAMES JONES,"0"
"2502",NM3567424,ENTERPRISE PRODUCTS COMPANY CHACO PLANT,EL PASO FIELD SERVICES,P,BLOOMFIELD,SAN JUAN,SW,28.00000000,84000.00000000,"67424004",NTNC,14428.00000000,WELL #6,,WL,GW,P,36.57490000,-108.08071000,"003",2020/02/27,0.00000000,,0.00000000,,0.00000000,,SANTA FE AREA OFFICE,JAMES JONES,"0"
"2506",NM3510701,ALBUQUERQUE WATER SYSTEM,,L,ALBUQUERQUE,BERNALILLO,SW,659736.00000000,92894000.00000000,"10701036",C,2252.00000000,LEYENDECKER WELL # 3,,WL,GW,P,35.13765600,-106.57788100,"003",2002/02/05,996.00000000,FT,0.00000000,,395.00000000,FT,SANTA FE AREA OFFICE,WAYNE JEFFS,"-1"
"2507",NM3510701,ALBUQUERQUE WATER SYSTEM,,L,ALBUQUERQUE,BERNALILLO,SW,659736.00000000,92894000.00000000,"10701037",C,2253.00000000,LEYENDECKER WELL # 4,,WL,GW,P,35.13729800,-106.56905400,"003",2002/02/05,996.00000000,FT,0.00000000,,457.00000000,FT,SANTA FE AREA OFFICE,WAYNE JEFFS,"-1"
"2508",NM3510701,ALBUQUERQUE WATER SYSTEM,,L,ALBUQUERQUE,BERNALILLO,SW,659736.00000000,92894000.00000000,"10701038",C,2254.00000000,LOMAS WELL # 1,,WL,GW,P,35.07490700,-106.50781100,"003",2002/02/05,1300.00000000,FT,0.00000000,,731.00000000,FT,SANTA FE AREA OFFICE,WAYNE JEFFS,"-1"
"2509",NM3510701,ALBUQUERQUE WATER SYSTEM,,L,ALBUQUERQUE,BERNALILLO,SW,659736.00000000,92894000.00000000,"10701068",C,2283.00000000,SANTA BARBARA WELL # 1,,WL,GW,P,35.11329300,-106.60765900,"003",2002/02/05,0.00000000,,0.00000000,,264.00000000,FT,SANTA FE AREA OFFICE,WAYNE JEFFS,"-1"
"2510",NM3510701,ALBUQUERQUE WATER SYSTEM,,L,ALBUQUERQUE,BERNALILLO,SW,659736.00000000,92894000.00000000,"10701108",C,2312.00000000,BURTON WELL # 1,,WL,GW,P,35.06644900,-106.60514100,"003",2002/02/05,0.00000000,,0.00000000,,475.00000000,FT,SANTA FE AREA OFFICE,WAYNE JEFFS,"-1"
"2511",NM3510701,ALBUQUERQUE WATER SYSTEM,,L,ALBUQUERQUE,BERNALILLO,SW,659736.00000000,92894000.00000000,"10701095",C,2310.00000000,YALE WELL # 3,,WL,GW,P,35.07637900,-106.63378300,"003",2002/02/05,0.00000000,,0.00000000,,204.00000000,FT,SANTA FE AREA OFFICE,WAYNE JEFFS,"-1"
"2512",NM3510701,ALBUQUERQUE WATER SYSTEM,,L,ALBUQUERQUE,BERNALILLO,SW,659736.00000000,92894000.00000000,"10701042",C,2258.00000000,LOMAS WELL # 5,,WL,GW,P,35.07263300,-106.52391600,"003",2002/02/05,1670.00000000,FT,0.00000000,,656.00000000,FT,SANTA FE AREA OFFICE,WAYNE JEFFS,"-1"
"2513",NM3510701,ALBUQUERQUE WATER SYSTEM,,L,ALBUQUERQUE,BERNALILLO,SW,659736.00000000,92894000.00000000,"10701043",C,2259.00000000,LOMAS WELL # 6,,WL,GW,P,35.06893800,-106.52002500,"003",2002/02/05,1704.00000000,FT,0.00000000,,676.00000000,FT,SANTA FE AREA OFFICE,WAYNE JEFFS,"-1"
"2514",NM3510701,ALBUQUERQUE WATER SYSTEM,,L,ALBUQUERQUE,BERNALILLO,SW,659736.00000000,92894000.00000000,"10701174",C,12606.00000000,SAN JUAN CHAMA INTAKE,,IN,SW,P,35.19461600,-106.64283800,"003",2008/02/11,0.00000000,,0.00000000,,0.00000000,,SANTA FE AREA OFFICE,WAYNE JEFFS,"-1"
"2515",NM3510701,ALBUQUERQUE WATER SYSTEM,,L,ALBUQUERQUE,BERNALILLO,SW,659736.00000000,92894000.00000000,"10701081",C,2296.00000000,VOL ANDIA WELL # 6,,WL,GW,P,35.14068500,-106.59097300,"003",2002/02/05,0.00000000,,0.00000000,,288.00000000,FT,SANTA FE AREA OFFICE,WAYNE JEFFS,"-1"
"2516",NM3510701,ALBUQUERQUE WATER SYSTEM,,L,ALBUQUERQUE,BERNALILLO,SW,659736.00000000,92894000.00000000,"10701046",C,2262.00000000,LOVE WELL # 3,,WL,GW,P,35.08674000,-106.53882500,"003",2002/02/05,1260.00000000,FT,0.00000000,,552.00000000,FT,SANTA FE AREA OFFICE,WAYNE JEFFS,"-1"
"2517",NM3510701,ALBUQUERQUE WATER SYSTEM,,L,ALBUQUERQUE,BERNALILLO,SW,659736.00000000,92894000.00000000,"10701047",C,2263.00000000,LOVE WELL # 4,,WL,GW,P,35.08676700,-106.54982700,"003",2002/02/05,1284.00000000,FT,0.00000000,,538.00000000,FT,SANTA FE AREA OFFICE,WAYNE JEFFS,"-1"
"2518",NM3510701,ALBUQUERQUE WATER SYSTEM,,L,ALBUQUERQUE,BERNALILLO,SW,659736.00000000,92894000.00000000,"10701034",C,2250.00000000,LEYENDECKER WELL # 1,,WL,GW,P,35.13109900,-106.57316600,"003",2002/02/05,0.00000000,,0.00000000,,413.00000000,FT,SANTA FE AREA OFFICE,WAYNE JEFFS,"-1"
"2519",NM3510701,ALBUQUERQUE WATER SYSTEM,,L,ALBUQUERQUE,BERNALILLO,SW,659736.00000000,92894000.00000000,"10701049",C,2265.00000000,LOVE WELL # 6,,WL,GW,P,35.09815700,-106.52772400,"003",2002/02/05,1521.00000000,FT,0.00000000,,665.00000000,FT,SANTA FE AREA OFFICE,WAYNE JEFFS,"-1"
"2520",NM3510701,ALBUQUERQUE WATER SYSTEM,,L,ALBUQUERQUE,BERNALILLO,SW,659736.00000000,92894000.00000000,"10701050",C,2266.00000000,LOVE WELL # 7,,WL,GW,P,35.10237900,-106.53758200,"003",2002/02/05,1485.00000000,FT,0.00000000,,594.00000000,FT,SANTA FE AREA OFFICE,WAYNE JEFFS,"-1"
"2521",NM3510701,ALBUQUERQUE WATER SYSTEM,,L,ALBUQUERQUE,BERNALILLO,SW,659736.00000000,92894000.00000000,"10701051",C,2267.00000000,LOVE WELL # 8,,WL,GW,P,35.09412900,-106.55901300,"003",2002/02/05,1455.00000000,FT,0.00000000,,456.00000000,FT,SANTA FE AREA OFFICE,WAYNE JEFFS,"-1"
"2522",NM3510701,ALBUQUERQUE WATER SYSTEM,,L,ALBUQUERQUE,BERNALILLO,SW,659736.00000000,92894000.00000000,"10701080",C,2295.00000000,VOL ANDIA WELL # 5,,WL,GW,P,35.13463100,-106.60310500,"003",2002/02/05,0.00000000,,0.00000000,,222.00000000,FT,SANTA FE AREA OFFICE,WAYNE JEFFS,"-1"
"2523",NM3510701,ALBUQUERQUE WATER SYSTEM,,L,ALBUQUERQUE,BERNALILLO,SW,659736.00000000,92894000.00000000,"10701093",C,2308.00000000,YALE WELL # 1,,WL,GW,P,35.07372400,-106.62451900,"003",2002/02/05,0.00000000,,0.00000000,,286.00000000,FT,SANTA FE AREA OFFICE,WAYNE JEFFS,"-1"
"2524",NM3510701,ALBUQUERQUE WATER SYSTEM,,L,ALBUQUERQUE,BERNALILLO,SW,659736.00000000,92894000.00000000,"10701054",C,2270.00000000,PONDEROSA WELL # 2,,WL,GW,P,35.13393800,-106.53166900,"003",2002/02/05,1581.00000000,FT,0.00000000,,733.00000000,FT,SANTA FE AREA OFFICE,WAYNE JEFFS,"-1"
"2525",NM3510701,ALBUQUERQUE WATER SYSTEM,,L,ALBUQUERQUE,BERNALILLO,SW,659736.00000000,92894000.00000000,"10701019",C,2235.00000000,DURANES WELL # 1,,WL,GW,P,35.11139300,-106.66890200,"003",2002/02/05,924.00000000,FT,0.00000000,,42.00000000,FT,SANTA FE AREA OFFICE,WAYNE JEFFS,"-1"
"2526",NM3510701,ALBUQUERQUE WATER SYSTEM,,L,ALBUQUERQUE,BERNALILLO,SW,659736.00000000,92894000.00000000,"10701020",C,2236.00000000,DURANES WELL # 2,,WL,GW,P,35.11972000,-106.68028500,"003",2002/02/05,804.00000000,FT,0.00000000,,34.00000000,FT,SANTA FE AREA OFFICE,WAYNE JEFFS,"-1"
"2527",NM3510701,ALBUQUERQUE WATER SYSTEM,,L,ALBUQUERQUE,BERNALILLO,SW,659736.00000000,92894000.00000000,"10701021",C,2237.00000000,DURANES WELL # 3,,WL,GW,P,35.10849000,-106.67930100,"003",2002/02/05,950.00000000,FT,0.00000000,,43.00000000,FT,SANTA FE AREA OFFICE,WAYNE JEFFS,"-1"
"2528",NM3510701,ALBUQUERQUE WATER SYSTEM,,L,ALBUQUERQUE,BERNALILLO,SW,659736.00000000,92894000.00000000,"10701072",C,2287.00000000,THOMAS WELL # 4,,WL,GW,P,35.13685100,-106.54527200,"003",2002/02/05,0.00000000,,0.00000000,,619.00000000,FT,SANTA FE AREA OFFICE,WAYNE JEFFS,"-1"
"2529",NM3510701,ALBUQUERQUE WATER SYSTEM,,L,ALBUQUERQUE,BERNALILLO,SW,659736.00000000,92894000.00000000,"10701078",C,2293.00000000,VOL ANDIA WELL # 3,,WL,GW,P,35.12798600,-106.60494400,"003",2002/02/05,0.00000000,,0.00000000,,231.00000000,FT,SANTA FE AREA OFFICE,WAYNE JEFFS,"-1"
"2530",NM3510701,ALBUQUERQUE WATER SYSTEM,,L,ALBUQUERQUE,BERNALILLO,SW,659736.00000000,92894000.00000000,"10701069",C,2284.00000000,THOMAS WELL # 1,,WL,GW,P,35.13137700,-106.54946800,"003",2002/02/05,0.00000000,,0.00000000,,585.00000000,FT,SANTA FE AREA OFFICE,WAYNE JEFFS,"-1"
"2531",NM3510701,ALBUQUERQUE WATER SYSTEM,,L,ALBUQUERQUE,BERNALILLO,SW,659736.00000000,92894000.00000000,"10701025",C,2241.00000000,DURANES WELL # 7,,WL,GW,P,35.11555400,-106.68626600,"003",2002/02/05,814.00000000,FT,0.00000000,,40.00000000,FT,SANTA FE AREA OFFICE,WAYNE JEFFS,"-1"
"2532",NM3510701,ALBUQUERQUE WATER SYSTEM,,L,ALBUQUERQUE,BERNALILLO,SW,659736.00000000,92894000.00000000,"10701026",C,2242.00000000,GRIEGOS WELL # 1,,WL,GW,P,35.14046400,-106.66405700,"003",2002/02/05,802.00000000,FT,0.00000000,,25.00000000,FT,SANTA FE AREA OFFICE,WAYNE JEFFS,"-1"
"2533",NM3510701,ALBUQUERQUE WATER SYSTEM,,L,ALBUQUERQUE,BERNALILLO,SW,659736.00000000,92894000.00000000,"10701116",C,2320.00000000,RIDGECREST WELL # 2,,WL,GW,P,35.07445300,-106.54370000,"003",2002/02/05,0.00000000,,0.00000000,,568.00000000,FT,SANTA FE AREA OFFICE,WAYNE JEFFS,"-1"
"2820",NM3502721,LUMBERTON MDWCA,,L,LUMBERTON,RIO ARRIBA,SW,223.00000000,35000.00000000,"02721005",C,12318.00000000,INTAKE #1,,IN,SW,P,36.97870200,-106.93667300,"003",2013/09/30,0.00000000,,0.00000000,,0.00000000,,SANTA FE AREA OFFICE,SF FRANK BACA,"-1"
"2821",NM3502721,LUMBERTON MDWCA,,L,LUMBERTON,RIO ARRIBA,SW,223.00000000,35000.00000000,"02721001",C,7231.00000000,INFILTRATION GALLERY #1,,IG,SW,P,36.97870200,-106.93667300,"003",2013/09/30,0.00000000,,0.00000000,,0.00000000,,SANTA FE AREA OFFICE,SF FRANK BACA,"-1"
"2822",NM3502721,LUMBERTON MDWCA,,L,LUMBERTON,RIO ARRIBA,SW,223.00000000,35000.00000000,"02721002",C,8940.00000000,INFILTRATION GALLERY #2,,IG,GU,P,36.97778900,-106.90865200,"003",,0.00000000,,0.00000000,,0.00000000,,SANTA FE AREA OFFICE,SF FRANK BACA,"0"
"2249",NM3593621,EL VADO LAKE STATE PARK,,S,RUTHERON,RIO ARRIBA,SW,100.00000000,4000.00000000,"93621001",NC,7041.00000000,SURFACE WATER INTAKE #1,,IN,SW,P,36.61006000,-106.74291000,"003",2006/08/23,0.00000000,,0.00000000,,0.00000000,,SANTA FE AREA OFFICE,SF FRANK BACA,"-1"
"2534",NM3510701,ALBUQUERQUE WATER SYSTEM,,L,ALBUQUERQUE,BERNALILLO,SW,659736.00000000,92894000.00000000,"10701028",C,2244.00000000,GRIEGOS WELL # 3,,WL,GW,P,35.13478400,-106.67438700,"003",2002/02/05,916.00000000,FT,0.00000000,,21.00000000,FT,SANTA FE AREA OFFICE,WAYNE JEFFS,"-1"
"2535",NM3510701,ALBUQUERQUE WATER SYSTEM,,L,ALBUQUERQUE,BERNALILLO,SW,659736.00000000,92894000.00000000,"10701029",C,2245.00000000,GRIEGOS WELL # 4,,WL,GW,P,35.14002900,-106.65132400,"003",2002/02/05,804.00000000,FT,0.00000000,,46.00000000,FT,SANTA FE AREA OFFICE,WAYNE JEFFS,"-1"
"2536",NM3510701,ALBUQUERQUE WATER SYSTEM,,L,ALBUQUERQUE,BERNALILLO,SW,659736.00000000,92894000.00000000,"10701180",C,12878.00000000,GONZALES WELL # 3,,WL,GW,P,35.11805500,-106.70038800,"003",2002/02/05,0.00000000,,0.00000000,,0.00000000,,SANTA FE AREA OFFICE,WAYNE JEFFS,"-1"
"2537",NM3510701,ALBUQUERQUE WATER SYSTEM,,L,ALBUQUERQUE,BERNALILLO,SW,659736.00000000,92894000.00000000,"10701177",C,12648.00000000,SAN JUAN CHAMA RAW WATER ENTRY,,RS,SW,P,35.14353800,-106.61203800,"003",2009/02/11,0.00000000,,0.00000000,,0.00000000,,SANTA FE AREA OFFICE,WAYNE JEFFS,"-1"
"2538",NM3510701,ALBUQUERQUE WATER SYSTEM,,L,ALBUQUERQUE,BERNALILLO,SW,659736.00000000,92894000.00000000,"10701077",C,2292.00000000,VOL ANDIA WELL # 2,,WL,GW,P,35.12540500,-106.58449600,"003",2002/02/05,0.00000000,,0.00000000,,340.00000000,FT,SANTA FE AREA OFFICE,WAYNE JEFFS,"-1"
"2539",NM3510701,ALBUQUERQUE WATER SYSTEM,,L,ALBUQUERQUE,BERNALILLO,SW,659736.00000000,92894000.00000000,"10701071",C,2286.00000000,THOMAS WELL # 3,,WL,GW,P,35.13768700,-106.55427600,"003",2002/02/05,0.00000000,,0.00000000,,553.00000000,FT,SANTA FE AREA OFFICE,WAYNE JEFFS,"-1"
"2540",NM3510701,ALBUQUERQUE WATER SYSTEM,,L,ALBUQUERQUE,BERNALILLO,SW,659736.00000000,92894000.00000000,"10701035",C,2251.00000000,LEYENDECKER WELL # 2,,WL,GW,P,35.12485100,-106.56907700,"003",2002/02/05,996.00000000,FT,0.00000000,,427.00000000,FT,SANTA FE AREA OFFICE,WAYNE JEFFS,"-1"
"2541",NM3510701,ALBUQUERQUE WATER SYSTEM,,L,ALBUQUERQUE,BERNALILLO,SW,659736.00000000,92894000.00000000,"10701079",C,2294.00000000,VOL ANDIA WELL # 4,,WL,GW,P,35.13421200,-106.58735700,"003",2002/02/05,0.00000000,,0.00000000,,322.00000000,FT,SANTA FE AREA OFFICE,WAYNE JEFFS,"-1"
"2542",NM3510701,ALBUQUERQUE WATER SYSTEM,,L,ALBUQUERQUE,BERNALILLO,SW,659736.00000000,92894000.00000000,"10701255",C,14157.00000000,SAN JUAN CHAMA CLEAR WELLS,,CW,SW,P,35.14442300,-106.61147600,"003",2018/09/19,0.00000000,,0.00000000,,0.00000000,,SANTA FE AREA OFFICE,WAYNE JEFFS,"-1"
"2543",NM3510701,ALBUQUERQUE WATER SYSTEM,,L,ALBUQUERQUE,BERNALILLO,SW,659736.00000000,92894000.00000000,"10701076",C,2291.00000000,VOL ANDIA WELL # 1,,WL,GW,P,35.13463100,-106.59716800,"003",2002/02/05,0.00000000,,0.00000000,,262.00000000,FT,SANTA FE AREA OFFICE,WAYNE JEFFS,"-1"
"2544",NM3510701,ALBUQUERQUE WATER SYSTEM,,L,ALBUQUERQUE,BERNALILLO,SW,659736.00000000,92894000.00000000,"10701190",C,12898.00000000,CORRALES WELL #04,,WL,GW,P,35.20384100,-106.73975000,"003",2002/02/05,0.00000000,,0.00000000,,0.00000000,,SANTA FE AREA OFFICE,WAYNE JEFFS,"-1"
"2545",NM3510701,ALBUQUERQUE WATER SYSTEM,,L,ALBUQUERQUE,BERNALILLO,SW,659736.00000000,92894000.00000000,"10701059",C,2275.00000000,RIDGECREST WELL # 1,,WL,GW,P,35.06818600,-106.53924500,"003",2002/02/05,1260.00000000,FT,0.00000000,,606.00000000,FT,SANTA FE AREA OFFICE,WAYNE JEFFS,"-1"
"2546",NM3510701,ALBUQUERQUE WATER SYSTEM,,L,ALBUQUERQUE,BERNALILLO,SW,659736.00000000,92894000.00000000,"10701060",C,2276.00000000,RIDGECREST WELL # 3,,WL,GW,P,35.06996300,-106.55351200,"003",2002/02/05,1448.00000000,FT,0.00000000,,531.00000000,FT,SANTA FE AREA OFFICE,WAYNE JEFFS,"-1"
"2547",NM3510701,ALBUQUERQUE WATER SYSTEM,,L,ALBUQUERQUE,BERNALILLO,SW,659736.00000000,92894000.00000000,"10701061",C,2277.00000000,RIDGECREST WELL # 4,,WL,GW,P,35.07918700,-106.56160700,"003",2002/02/05,1424.00000000,FT,0.00000000,,506.00000000,FT,SANTA FE AREA OFFICE,WAYNE JEFFS,"-1"
"2548",NM3510701,ALBUQUERQUE WATER SYSTEM,,L,ALBUQUERQUE,BERNALILLO,SW,659736.00000000,92894000.00000000,"10701062",C,2278.00000000,RIDGECREST WELL # 5,,WL,GW,P,35.07223300,-106.56294900,"003",2002/02/05,1470.00000000,FT,0.00000000,,514.00000000,FT,SANTA FE AREA OFFICE,WAYNE JEFFS,"-1"
"2549",NM3510701,ALBUQUERQUE WATER SYSTEM,,L,ALBUQUERQUE,BERNALILLO,SW,659736.00000000,92894000.00000000,"10701178",C,12643.00000000,SJC SETTLED WATER  PUMP STATION,,RS,SW,P,35.14353800,-106.61203800,"003",2009/02/11,0.00000000,,0.00000000,,0.00000000,,SANTA FE AREA OFFICE,WAYNE JEFFS,"-1"
"2550",NM3510701,ALBUQUERQUE WATER SYSTEM,,L,ALBUQUERQUE,BERNALILLO,SW,659736.00000000,92894000.00000000,"10701073",C,2288.00000000,THOMAS WELL # 5,,WL,GW,P,35.12889100,-106.56031100,"003",2002/02/05,1553.00000000,FT,0.00000000,,499.00000000,FT,SANTA FE AREA OFFICE,WAYNE JEFFS,"-1"
"2551",NM3510701,ALBUQUERQUE WATER SYSTEM,,L,ALBUQUERQUE,BERNALILLO,SW,659736.00000000,92894000.00000000,"10701074",C,2289.00000000,THOMAS WELL # 6,,WL,GW,P,35.12223800,-106.55155900,"003",2002/02/05,1551.00000000,FT,0.00000000,,545.00000000,FT,SANTA FE AREA OFFICE,WAYNE JEFFS,"-1"
"2552",NM3510701,ALBUQUERQUE WATER SYSTEM,,L,ALBUQUERQUE,BERNALILLO,SW,659736.00000000,92894000.00000000,"10701075",C,2290.00000000,THOMAS WELL # 7,,WL,GW,P,35.11989200,-106.56130200,"003",2002/02/05,1515.00000000,FT,0.00000000,,472.00000000,FT,SANTA FE AREA OFFICE,WAYNE JEFFS,"-1"
"2553",NM3510701,ALBUQUERQUE WATER SYSTEM,,L,ALBUQUERQUE,BERNALILLO,SW,659736.00000000,92894000.00000000,"10701107",C,2311.00000000,ZAMORA WELL # 1,,WL,GW,P,35.15520700,-106.71473200,"003",2002/02/05,987.00000000,FT,20.00000000,IN,221.00000000,FT,SANTA FE AREA OFFICE,WAYNE JEFFS,"-1"
"2554",NM3510701,ALBUQUERQUE WATER SYSTEM,,L,ALBUQUERQUE,BERNALILLO,SW,659736.00000000,92894000.00000000,"10701094",C,2309.00000000,YALE WELL # 2,,WL,GW,P,35.06610200,-106.62516800,"003",2002/02/05,0.00000000,,0.00000000,,258.00000000,FT,SANTA FE AREA OFFICE,WAYNE JEFFS,"-1"
"2555",NM3510701,ALBUQUERQUE WATER SYSTEM,,L,ALBUQUERQUE,BERNALILLO,SW,659736.00000000,92894000.00000000,"10701110",C,2314.00000000,BURTON WELL # 5,,WL,GW,P,35.06541900,-106.58816500,"003",2002/02/05,1170.00000000,FT,0.00000000,,423.00000000,FT,SANTA FE AREA OFFICE,WAYNE JEFFS,"-1"
"2556",NM3510701,ALBUQUERQUE WATER SYSTEM,,L,ALBUQUERQUE,BERNALILLO,SW,659736.00000000,92894000.00000000,"10701111",C,2315.00000000,CHARLES WELLS WELL # 5,,WL,GW,P,35.10430500,-106.58376300,"003",2002/02/05,1400.00000000,FT,0.00000000,,363.00000000,FT,SANTA FE AREA OFFICE,WAYNE JEFFS,"-1"
"2557",NM3510701,ALBUQUERQUE WATER SYSTEM,,L,ALBUQUERQUE,BERNALILLO,SW,659736.00000000,92894000.00000000,"10701112",C,2316.00000000,CORONADO WELL # 1,,WL,GW,P,35.17323900,-106.57258600,"003",2002/02/05,1194.00000000,FT,0.00000000,,401.00000000,FT,SANTA FE AREA OFFICE,WAYNE JEFFS,"-1"
"2558",NM3510701,ALBUQUERQUE WATER SYSTEM,,L,ALBUQUERQUE,BERNALILLO,SW,659736.00000000,92894000.00000000,"10701113",C,2317.00000000,CORONADO WELL # 2,,WL,GW,P,35.16878000,-106.57793400,"003",2002/02/05,1390.00000000,FT,0.00000000,,339.00000000,FT,SANTA FE AREA OFFICE,WAYNE JEFFS,"-1"
"2559",NM3510701,ALBUQUERQUE WATER SYSTEM,,L,ALBUQUERQUE,BERNALILLO,SW,659736.00000000,92894000.00000000,"10701114",C,2318.00000000,GONZALES WELL # 1,,WL,GW,P,35.11172000,-106.70849800,"003",2002/02/05,970.00000000,FT,0.00000000,,174.00000000,FT,SANTA FE AREA OFFICE,WAYNE JEFFS,"-1"
"2560",NM3510701,ALBUQUERQUE WATER SYSTEM,,L,ALBUQUERQUE,BERNALILLO,SW,659736.00000000,92894000.00000000,"10701115",C,2319.00000000,GONZALES WELL # 2,,WL,GW,P,35.10973300,-106.69777100,"003",2002/02/05,1115.00000000,FT,0.00000000,,165.00000000,FT,SANTA FE AREA OFFICE,WAYNE JEFFS,"-1"
"2561",NM3510701,ALBUQUERQUE WATER SYSTEM,,L,ALBUQUERQUE,BERNALILLO,SW,659736.00000000,92894000.00000000,"10701117",C,2321.00000000,THOMAS WELL # 8,,WL,GW,P,35.12001100,-106.54242600,"003",2002/02/05,1688.00000000,FT,0.00000000,,613.00000000,FT,SANTA FE AREA OFFICE,WAYNE JEFFS,"-1"
"2562",NM3510701,ALBUQUERQUE WATER SYSTEM,,L,ALBUQUERQUE,BERNALILLO,SW,659736.00000000,92894000.00000000,"10701148",C,2322.00000000,ZAMORA WELL # 2,,WL,GW,P,35.14786300,-106.71653300,"003",2002/02/05,1020.00000000,FT,0.00000000,,236.00000000,FT,SANTA FE AREA OFFICE,WAYNE JEFFS,"-1"
"2563",NM3510701,ALBUQUERQUE WATER SYSTEM,,L,ALBUQUERQUE,BERNALILLO,SW,659736.00000000,92894000.00000000,"10701001",C,2218.00000000,ATRISCO WELL # 1,,WL,GW,P,35.07159200,-106.68994400,"003",2002/02/05,1295.00000000,FT,0.00000000,,47.00000000,FT,SANTA FE AREA OFFICE,WAYNE JEFFS,"-1"
"2564",NM3510701,ALBUQUERQUE WATER SYSTEM,,L,ALBUQUERQUE,BERNALILLO,SW,659736.00000000,92894000.00000000,"10701002",C,2219.00000000,ATRISCO WELL # 2,,WL,GW,P,35.07921200,-106.68813500,"003",2002/02/05,544.00000000,FT,0.00000000,,22.00000000,FT,SANTA FE AREA OFFICE,WAYNE JEFFS,"-1"
"2565",NM3510701,ALBUQUERQUE WATER SYSTEM,,L,ALBUQUERQUE,BERNALILLO,SW,659736.00000000,92894000.00000000,"10701003",C,2220.00000000,ATRISCO WELL # 3,,WL,GW,P,35.08726500,-106.68877600,"003",2002/02/05,804.00000000,FT,0.00000000,,22.00000000,FT,SANTA FE AREA OFFICE,WAYNE JEFFS,"-1"
"2566",NM3510701,ALBUQUERQUE WATER SYSTEM,,L,ALBUQUERQUE,BERNALILLO,SW,659736.00000000,92894000.00000000,"10701004",C,2221.00000000,ATRISCO WELL # 4,,WL,GW,P,35.08592200,-106.69562000,"003",2002/02/05,500.00000000,FT,0.00000000,,29.00000000,FT,SANTA FE AREA OFFICE,WAYNE JEFFS,"-1"
"2567",NM3510701,ALBUQUERQUE WATER SYSTEM,,L,ALBUQUERQUE,BERNALILLO,SW,659736.00000000,92894000.00000000,"10701005",C,2222.00000000,BURTON WELL # 2,,WL,GW,P,35.07254500,-106.60363000,"003",2002/02/05,1312.00000000,FT,0.00000000,,475.00000000,FT,SANTA FE AREA OFFICE,WAYNE JEFFS,"-1"
"2568",NM3510701,ALBUQUERQUE WATER SYSTEM,,L,ALBUQUERQUE,BERNALILLO,SW,659736.00000000,92894000.00000000,"10701006",C,2223.00000000,BURTON WELL # 3,,WL,GW,P,35.07765700,-106.60030400,"003",2002/02/05,994.00000000,FT,0.00000000,,353.00000000,FT,SANTA FE AREA OFFICE,WAYNE JEFFS,"-1"
"2569",NM3510701,ALBUQUERQUE WATER SYSTEM,,L,ALBUQUERQUE,BERNALILLO,SW,659736.00000000,92894000.00000000,"10701011",C,2228.00000000,CHARLES WELLS WELL # 1,,WL,GW,P,35.10793300,-106.56400200,"003",2002/02/05,1056.00000000,FT,0.00000000,,474.00000000,FT,SANTA FE AREA OFFICE,WAYNE JEFFS,"-1"
"2851",NM3546419,TIMBERON W AND SD,,L,TIMBERON,OTERO,SW,941.00000000,1032500.00000000,"46419012",C,8215.00000000,WELL #5 (PLANT WELL),PLANT WELL,WL,GW,P,32.64637500,-105.70231100,"003",2003/01/29,1200.00000000,FT,8.00000000,IN,670.00000000,FT,LAS CRUCES AREA OFFICE,ANTONIO ROMERO,"-1"
"2852",NM3546419,TIMBERON W AND SD,,L,TIMBERON,OTERO,SW,941.00000000,1032500.00000000,"46419015",C,8218.00000000,SPRING #5 (CARRISA),CARRISA SPRING,SP,GU,P,32.65137600,-105.66417300,"003",2002/01/29,0.00000000,,0.00000000,,0.00000000,,LAS CRUCES AREA OFFICE,ANTONIO ROMERO,"-1"
"2853",NM3546419,TIMBERON W AND SD,,L,TIMBERON,OTERO,SW,941.00000000,1032500.00000000,"46419001",C,7155.00000000,SPRING #1,,SP,SW,P,32.65120900,-105.67442300,"003",,0.00000000,,0.00000000,,0.00000000,,LAS CRUCES AREA OFFICE,ANTONIO ROMERO,"-1"
"2854",NM3546419,TIMBERON W AND SD,,L,TIMBERON,OTERO,SW,941.00000000,1032500.00000000,"46419004",C,7158.00000000,SPRING #4,,SP,SW,P,32.65166700,-105.66250000,"003",,0.00000000,,0.00000000,,0.00000000,,LAS CRUCES AREA OFFICE,ANTONIO ROMERO,"-1"
"2855",NM3546419,TIMBERON W AND SD,,L,TIMBERON,OTERO,SW,941.00000000,1032500.00000000,"46419026",C,14469.00000000,GOLF COURSE WELL,,WL,GW,P,32.63508300,-105.70139000,"003",2020/09/08,0.00000000,,0.00000000,,0.00000000,,LAS CRUCES AREA OFFICE,ANTONIO ROMERO,"-1"
"2856",NM3546419,TIMBERON W AND SD,,L,TIMBERON,OTERO,SW,941.00000000,1032500.00000000,"46419003",C,7157.00000000,SPRING #3,,SP,SW,P,32.65180600,-105.66194400,"003",,0.00000000,,0.00000000,,0.00000000,,LAS CRUCES AREA OFFICE,ANTONIO ROMERO,"-1"
"2857",NM3546419,TIMBERON W AND SD,,L,TIMBERON,OTERO,SW,941.00000000,1032500.00000000,"46419002",C,7156.00000000,SPRING #2,,SP,SW,P,32.65200000,-105.66152800,"003",,0.00000000,,0.00000000,,0.00000000,,LAS CRUCES AREA OFFICE,ANTONIO ROMERO,"-1"
"2858",NM3546419,TIMBERON W AND SD,,L,TIMBERON,OTERO,SW,941.00000000,1032500.00000000,"46419021",C,11082.00000000,CLEAR WELL #1,,CW,GW,P,32.64637500,-105.70231100,"003",2003/01/29,0.00000000,,0.00000000,,0.00000000,,LAS CRUCES AREA OFFICE,ANTONIO ROMERO,"-1"
"2859",NM3546419,TIMBERON W AND SD,,L,TIMBERON,OTERO,SW,941.00000000,1032500.00000000,"46419010",C,8213.00000000,WELL #3 (FIRE STATION WELL),FIRE STATION WELL,WL,GW,P,32.64173700,-105.69147700,"003",2003/01/29,400.00000000,FT,0.00000000,,50.00000000,FT,LAS CRUCES AREA OFFICE,ANTONIO ROMERO,"0"
"2860",NM3546419,TIMBERON W AND SD,,L,TIMBERON,OTERO,SW,941.00000000,1032500.00000000,"46419011",C,8214.00000000,WELL #4 (SACRAMENTO WELL),SACRAMENTO WELL,WL,GW,P,32.64445900,-105.69467200,"003",2003/01/29,490.00000000,FT,0.00000000,,48.00000000,FT,LAS CRUCES AREA OFFICE,ANTONIO ROMERO,"0"
"2861",NM3546419,TIMBERON W AND SD,,L,TIMBERON,OTERO,SW,941.00000000,1032500.00000000,"46419013",C,8216.00000000,WELL #6 (T-BOX WELL),T-BOX WELL,WL,GW,P,32.63493100,-105.69500500,"003",2002/01/29,440.00000000,FT,0.00000000,,160.00000000,FT,LAS CRUCES AREA OFFICE,ANTONIO ROMERO,"0"
"2862",NM3546419,TIMBERON W AND SD,,L,TIMBERON,OTERO,SW,941.00000000,1032500.00000000,"46419022",C,11083.00000000,CLEAR WELL #2,,CW,GW,P,32.64637500,-105.70231100,"003",2003/01/29,0.00000000,,0.00000000,,0.00000000,,LAS CRUCES AREA OFFICE,ANTONIO ROMERO,"0"
"2863",NM3546419,TIMBERON W AND SD,,L,TIMBERON,OTERO,SW,941.00000000,1032500.00000000,"46419005",C,3372.00000000,WELL #1,,WL,GW,P,32.62315500,-105.67136700,"003",,0.00000000,,0.00000000,,0.00000000,,LAS CRUCES AREA OFFICE,ANTONIO ROMERO,"0"
"2864",NM3546419,TIMBERON W AND SD,,L,TIMBERON,OTERO,SW,941.00000000,1032500.00000000,"46419006",C,3373.00000000,WELL #2,,WL,GW,P,32.62315500,-105.67220100,"003",,0.00000000,,0.00000000,,0.00000000,,LAS CRUCES AREA OFFICE,ANTONIO ROMERO,"0"
"2570",NM3510701,ALBUQUERQUE WATER SYSTEM,,L,ALBUQUERQUE,BERNALILLO,SW,659736.00000000,92894000.00000000,"10701012",C,2229.00000000,CHARLES WELLS WELL # 2,,WL,GW,P,35.10138000,-106.57138100,"003",2002/02/05,1020.00000000,FT,0.00000000,,403.00000000,FT,SANTA FE AREA OFFICE,WAYNE JEFFS,"-1"
"2571",NM3510701,ALBUQUERQUE WATER SYSTEM,,L,ALBUQUERQUE,BERNALILLO,SW,659736.00000000,92894000.00000000,"10701013",C,2230.00000000,CHARLES WELLS WELL # 3,,WL,GW,P,35.11124100,-106.57482900,"003",2002/02/05,1020.00000000,FT,0.00000000,,405.00000000,FT,SANTA FE AREA OFFICE,WAYNE JEFFS,"-1"
"2572",NM3510701,ALBUQUERQUE WATER SYSTEM,,L,ALBUQUERQUE,BERNALILLO,SW,659736.00000000,92894000.00000000,"10701014",C,2231.00000000,CHARLES WELLS WELL # 4,,WL,GW,P,35.10049100,-106.55928000,"003",2002/02/05,1056.00000000,FT,0.00000000,,460.00000000,FT,SANTA FE AREA OFFICE,WAYNE JEFFS,"-1"
"2573",NM3510701,ALBUQUERQUE WATER SYSTEM,,L,ALBUQUERQUE,BERNALILLO,SW,659736.00000000,92894000.00000000,"10701181",C,12888.00000000,CORRALES WELL #01,,WL,GW,P,35.19382500,-106.73856000,"003",2002/02/05,1095.00000000,FT,0.00000000,,504.00000000,FT,SANTA FE AREA OFFICE,WAYNE JEFFS,"-1"
"2574",NM3510701,ALBUQUERQUE WATER SYSTEM,,L,ALBUQUERQUE,BERNALILLO,SW,659736.00000000,92894000.00000000,"10701197",C,12905.00000000,CORRALES WELL #07,,WL,GW,P,35.20055500,-106.75555500,"003",2010/02/26,1555.00000000,FT,0.00000000,,625.00000000,FT,SANTA FE AREA OFFICE,WAYNE JEFFS,"-1"
"2575",NM3510701,ALBUQUERQUE WATER SYSTEM,,L,ALBUQUERQUE,BERNALILLO,SW,659736.00000000,92894000.00000000,"10701200",C,12908.00000000,CORRALES WELL #08,,WL,GW,P,35.21115000,-106.69191600,"003",2007/04/23,1680.00000000,FT,0.00000000,,324.00000000,FT,SANTA FE AREA OFFICE,WAYNE JEFFS,"-1"
"2576",NM3510701,ALBUQUERQUE WATER SYSTEM,,L,ALBUQUERQUE,BERNALILLO,SW,659736.00000000,92894000.00000000,"10701203",C,12911.00000000,CORRALES WELL #09,,WL,GW,P,35.18291000,-106.73970000,"003",2019/03/22,1350.00000000,FT,16.00000000,IN,568.00000000,FT,SANTA FE AREA OFFICE,WAYNE JEFFS,"-1"
"2577",NM3510701,ALBUQUERQUE WATER SYSTEM,,L,ALBUQUERQUE,BERNALILLO,SW,659736.00000000,92894000.00000000,"10701241",C,12235.00000000,BCIP WELL # 1,,WL,GW,P,35.07660500,-106.80062700,"003",2006/02/01,1114.00000000,FT,14.00000000,IN,890.00000000,FT,SANTA FE AREA OFFICE,WAYNE JEFFS,"-1"
"2578",NM3510701,ALBUQUERQUE WATER SYSTEM,,L,ALBUQUERQUE,BERNALILLO,SW,659736.00000000,92894000.00000000,"10701083",C,2298.00000000,VOLCANO CLIFFS WELL # 2,,WL,GW,P,35.15325400,-106.72854200,"003",2002/02/05,0.00000000,,0.00000000,,470.00000000,FT,SANTA FE AREA OFFICE,WAYNE JEFFS,"-1"
"2579",NM3510701,ALBUQUERQUE WATER SYSTEM,,L,ALBUQUERQUE,BERNALILLO,SW,659736.00000000,92894000.00000000,"10701082",C,2297.00000000,VOLCANO CLIFFS WELL # 1,,WL,GW,P,35.15966200,-106.72922100,"003",2002/02/05,0.00000000,,0.00000000,,461.00000000,FT,SANTA FE AREA OFFICE,WAYNE JEFFS,"-1"
"2580",NM3510701,ALBUQUERQUE WATER SYSTEM,,L,ALBUQUERQUE,BERNALILLO,SW,659736.00000000,92894000.00000000,"10701039",C,2255.00000000,LOMAS WELL # 2,,WL,GW,P,35.08532500,-106.50891100,"003",2002/02/05,1548.00000000,FT,0.00000000,,798.00000000,FT,SANTA FE AREA OFFICE,WAYNE JEFFS,"0"
"2581",NM3510701,ALBUQUERQUE WATER SYSTEM,,L,ALBUQUERQUE,BERNALILLO,SW,659736.00000000,92894000.00000000,"10701040",C,2256.00000000,LOMAS WELL # 3,,WL,GW,P,35.09124100,-106.51131300,"003",2002/02/05,1605.00000000,FT,0.00000000,,765.00000000,FT,SANTA FE AREA OFFICE,WAYNE JEFFS,"0"
"2582",NM3510701,ALBUQUERQUE WATER SYSTEM,,L,ALBUQUERQUE,BERNALILLO,SW,659736.00000000,92894000.00000000,"10701041",C,2257.00000000,LOMAS WELL # 4,,WL,GW,P,35.09642900,-106.51844600,"003",2002/02/05,1425.00000000,FT,0.00000000,,539.00000000,FT,SANTA FE AREA OFFICE,WAYNE JEFFS,"0"
"2583",NM3510701,ALBUQUERQUE WATER SYSTEM,,L,ALBUQUERQUE,BERNALILLO,SW,659736.00000000,92894000.00000000,"10701044",C,2260.00000000,LOVE WELL # 1,,WL,GW,P,35.08765500,-106.52912100,"003",2002/02/05,1096.00000000,FT,0.00000000,,627.00000000,FT,SANTA FE AREA OFFICE,WAYNE JEFFS,"0"
"2584",NM3510701,ALBUQUERQUE WATER SYSTEM,,L,ALBUQUERQUE,BERNALILLO,SW,659736.00000000,92894000.00000000,"10701045",C,2261.00000000,LOVE WELL # 2,,WL,GW,O,35.08066300,-106.53322500,"003",2002/02/05,1224.00000000,FT,0.00000000,,589.00000000,FT,SANTA FE AREA OFFICE,WAYNE JEFFS,"0"
"2585",NM3510701,ALBUQUERQUE WATER SYSTEM,,L,ALBUQUERQUE,BERNALILLO,SW,659736.00000000,92894000.00000000,"10701048",C,2264.00000000,LOVE WELL # 5,,WL,GW,P,35.08068600,-106.54496700,"003",2002/02/05,1248.00000000,FT,0.00000000,,565.00000000,FT,SANTA FE AREA OFFICE,WAYNE JEFFS,"0"
"2586",NM3510701,ALBUQUERQUE WATER SYSTEM,,L,ALBUQUERQUE,BERNALILLO,SW,659736.00000000,92894000.00000000,"10701052",C,2268.00000000,MILES WELL # 1,,WL,GW,P,35.05226400,-106.63015800,"003",2002/02/05,1165.00000000,FT,0.00000000,,276.00000000,FT,SANTA FE AREA OFFICE,WAYNE JEFFS,"0"
"2587",NM3510701,ALBUQUERQUE WATER SYSTEM,,L,ALBUQUERQUE,BERNALILLO,SW,659736.00000000,92894000.00000000,"10701053",C,2269.00000000,PONDEROSA WELL # 1,,WL,GW,E,35.15921300,-106.53280600,"003",2002/02/05,1704.00000000,FT,0.00000000,,784.00000000,FT,SANTA FE AREA OFFICE,WAYNE JEFFS,"0"
